[{"DATE":"2017-01-01","SEX":"M","UCR":"110","AGE":"39","TIME":"05:53","LOCATION":"4600 W Monroe St, Chicago, IL 60644","GEOCODE_OVERRIDE":"(41.8793423473835, -87.74075523018837)","LINK":"http://www.chicagotribune.com/news/local/breaking/ct-chicago-shootings-violence-20161231-story.html","ID":"9532","LAT":"41.8793423473835","LNG":" -87.74075523018837","IS_FATAL":"1","HOUR":"05:53:00","HOUR_HH":"5","MINUTES_MM":"53"},{"DATE":"2017-01-01","SEX":"M","UCR":"041A","AGE":"21","TIME":"01:05","LOCATION":"5500 W Drummond Pl, Chicago, IL 60639","GEOCODE_OVERRIDE":"(41.9288330078125, -87.76387023925781)","LINK":"http://www.chicagotribune.com/news/local/breaking/ct-chicago-shootings-violence-20161231-story.html","ID":"14662","LAT":"41.9288330078125","LNG":" -87.76387023925781","IS_FATAL":"0","HOUR":"01:05:00","HOUR_HH":"1","MINUTES_MM":"5"},{"DATE":"2017-01-01","SEX":"M","UCR":"041A","AGE":"19","TIME":"01:05","LOCATION":"5500 W Drummond Pl, Chicago, IL 60639","GEOCODE_OVERRIDE":"(41.9288330078125, -87.76387023925781)","LINK":"http://www.chicagotribune.com/news/local/breaking/ct-chicago-shootings-violence-20161231-story.html","ID":"14663","LAT":"41.9288330078125","LNG":" -87.76387023925781","IS_FATAL":"0","HOUR":"01:05:00","HOUR_HH":"1","MINUTES_MM":"5"},{"DATE":"2017-01-01","SEX":"M","UCR":"041A","AGE":"23","TIME":"01:40","LOCATION":"2300 W Jackson Blvd, Chicago, IL 60612","GEOCODE_OVERRIDE":"(41.877769470214844, -87.68408966064453)","LINK":"http://www.chicagotribune.com/news/local/breaking/ct-chicago-shootings-violence-20161231-story.html","ID":"14664","LAT":"41.877769470214844","LNG":" -87.68408966064453","IS_FATAL":"0","HOUR":"01:40:00","HOUR_HH":"1","MINUTES_MM":"40"},{"DATE":"2017-01-01","SEX":"F","UCR":"041A","AGE":"31","TIME":"02:00","LOCATION":"4400 S Indiana Ave, Chicago, IL 60653","GEOCODE_OVERRIDE":"(41.81458282470703, -87.62173461914062)","LINK":"http://www.chicagotribune.com/news/local/breaking/ct-chicago-shootings-violence-20161231-story.html","ID":"14665","LAT":"41.81458282470703","LNG":" -87.62173461914062","IS_FATAL":"0","HOUR":"02:00:00","HOUR_HH":"2","MINUTES_MM":"0"},{"DATE":"2017-01-01","SEX":"M","UCR":"041A","AGE":"33","TIME":"02:00","LOCATION":"4400 S Indiana Ave, Chicago, IL 60653","GEOCODE_OVERRIDE":"(41.81458282470703, -87.62173461914062)","LINK":"http://www.chicagotribune.com/news/local/breaking/ct-chicago-shootings-violence-20161231-story.html","ID":"14666","LAT":"41.81458282470703","LNG":" -87.62173461914062","IS_FATAL":"0","HOUR":"02:00:00","HOUR_HH":"2","MINUTES_MM":"0"},{"DATE":"2017-01-01","SEX":"M","UCR":"041A","AGE":"20","TIME":"02:00","LOCATION":"4400 S Indiana Ave, Chicago, IL 60653","GEOCODE_OVERRIDE":"(41.81458282470703, -87.62173461914062)","LINK":"http://www.chicagotribune.com/news/local/breaking/ct-chicago-shootings-violence-20161231-story.html","ID":"14667","LAT":"41.81458282470703","LNG":" -87.62173461914062","IS_FATAL":"0","HOUR":"02:00:00","HOUR_HH":"2","MINUTES_MM":"0"},{"DATE":"2017-01-01","SEX":"M","UCR":"041A","AGE":"22","TIME":"02:13","LOCATION":"200 W Pershing Rd, Chicago, IL 60609","GEOCODE_OVERRIDE":"(41.82369254529476, -87.63152495026588)","LINK":"http://www.chicagotribune.com/news/local/breaking/ct-chicago-shootings-violence-20161231-story.html","ID":"14668","LAT":"41.82369254529476","LNG":" -87.63152495026588","IS_FATAL":"0","HOUR":"02:13:00","HOUR_HH":"2","MINUTES_MM":"13"},{"DATE":"2017-01-01","SEX":"F","UCR":"041A","AGE":"29","TIME":"02:15","LOCATION":"9500 S State St, Chicago, IL 60628","GEOCODE_OVERRIDE":"(41.72157146036625, -87.6237827539444)","LINK":"http://www.chicagotribune.com/news/local/breaking/ct-chicago-shootings-violence-20161231-story.html","ID":"14669","LAT":"41.72157146036625","LNG":" -87.6237827539444","IS_FATAL":"0","HOUR":"02:15:00","HOUR_HH":"2","MINUTES_MM":"15"},{"DATE":"2017-01-01","SEX":"F","UCR":"041A","AGE":"26","TIME":"02:20","LOCATION":"200 W 71st St, Chicago, IL 60621","GEOCODE_OVERRIDE":"(41.76548056304455, -87.62994579970837)","LINK":"http://www.chicagotribune.com/news/local/breaking/ct-chicago-shootings-violence-20161231-story.html","ID":"14670","LAT":"41.76548056304455","LNG":" -87.62994579970837","IS_FATAL":"0","HOUR":"02:20:00","HOUR_HH":"2","MINUTES_MM":"20"},{"DATE":"2017-01-01","SEX":"M","UCR":"041A","AGE":"24","TIME":"02:30","LOCATION":"9200 S Parnell Ave, Chicago, IL 60620","GEOCODE_OVERRIDE":"(41.72688674926758, -87.63764953613281)","LINK":"http://www.chicagotribune.com/news/local/breaking/ct-chicago-shootings-violence-20161231-story.html","ID":"14671","LAT":"41.72688674926758","LNG":" -87.63764953613281","IS_FATAL":"0","HOUR":"02:30:00","HOUR_HH":"2","MINUTES_MM":"30"},{"DATE":"2017-01-01","SEX":"M","UCR":"041A","AGE":"19","TIME":"03:46","LOCATION":"11200 S Longwood Dr, Chicago, IL 60643","GEOCODE_OVERRIDE":"(41.68975830078125, -87.67268371582031)","LINK":"http://www.chicagotribune.com/news/local/breaking/ct-chicago-shootings-violence-20161231-story.html","ID":"14672","LAT":"41.68975830078125","LNG":" -87.67268371582031","IS_FATAL":"0","HOUR":"03:46:00","HOUR_HH":"3","MINUTES_MM":"46"},{"DATE":"2017-01-01","SEX":"M","UCR":"041A","AGE":"21","TIME":"03:46","LOCATION":"11200 S Longwood Dr, Chicago, IL 60643","GEOCODE_OVERRIDE":"(41.68975830078125, -87.67268371582031)","LINK":"http://www.chicagotribune.com/news/local/breaking/ct-chicago-shootings-violence-20161231-story.html","ID":"14673","LAT":"41.68975830078125","LNG":" -87.67268371582031","IS_FATAL":"0","HOUR":"03:46:00","HOUR_HH":"3","MINUTES_MM":"46"},{"DATE":"2017-01-01","SEX":"M","UCR":"041A","AGE":"20","TIME":"03:46","LOCATION":"11200 S Longwood Dr, Chicago, IL 60643","GEOCODE_OVERRIDE":"(41.68975830078125, -87.67268371582031)","LINK":"http://www.chicagotribune.com/news/local/breaking/ct-chicago-shootings-violence-20161231-story.html","ID":"14674","LAT":"41.68975830078125","LNG":" -87.67268371582031","IS_FATAL":"0","HOUR":"03:46:00","HOUR_HH":"3","MINUTES_MM":"46"},{"DATE":"2017-01-01","SEX":"M","UCR":"041A","AGE":"26","TIME":"03:55","LOCATION":"200 W 63rd St, Chicago, IL 60621","GEOCODE_OVERRIDE":"(41.780037581920624, -87.62969970703125)","LINK":"http://www.chicagotribune.com/news/local/breaking/ct-chicago-shootings-violence-20161231-story.html","ID":"14675","LAT":"41.780037581920624","LNG":" -87.62969970703125","IS_FATAL":"0","HOUR":"03:55:00","HOUR_HH":"3","MINUTES_MM":"55"},{"DATE":"2017-01-01","SEX":"M","UCR":"041A","AGE":"52","TIME":"05:30","LOCATION":"4800 S Racine Ave, Chicago, IL 60609","GEOCODE_OVERRIDE":"(41.806785583496094, -87.65555572509766)","LINK":"http://www.chicagotribune.com/news/local/breaking/ct-chicago-shootings-violence-20161231-story.html","ID":"14676","LAT":"41.806785583496094","LNG":" -87.65555572509766","IS_FATAL":"0","HOUR":"05:30:00","HOUR_HH":"5","MINUTES_MM":"30"},{"DATE":"2017-01-01","SEX":"M","UCR":"041A","AGE":"26","TIME":"22:55","LOCATION":"40 S Leamington Ave, Chicago, IL 60644","GEOCODE_OVERRIDE":"(41.88006654381752, -87.75358155369759)","LINK":"http://www.chicagotribune.com/news/local/breaking/ct-chicago-shootings-violence-20170101-story.html","ID":"14677","LAT":"41.88006654381752","LNG":" -87.75358155369759","IS_FATAL":"0","HOUR":"22:55:00","HOUR_HH":"22","MINUTES_MM":"55"},{"DATE":"2017-01-01","SEX":"M","UCR":"041A","AGE":"31","TIME":"22:55","LOCATION":"40 S Leamington Ave, Chicago, IL 60644","GEOCODE_OVERRIDE":"(41.88006654381752, -87.75358155369759)","LINK":"http://www.chicagotribune.com/news/local/breaking/ct-chicago-shootings-violence-20170101-story.html","ID":"14678","LAT":"41.88006654381752","LNG":" -87.75358155369759","IS_FATAL":"0","HOUR":"22:55:00","HOUR_HH":"22","MINUTES_MM":"55"},{"DATE":"2017-01-01","SEX":"M","UCR":"041A","AGE":"19","TIME":"22:55","LOCATION":"40 S Leamington Ave, Chicago, IL 60644","GEOCODE_OVERRIDE":"(41.88006654381752, -87.75358155369759)","LINK":"http://www.chicagotribune.com/news/local/breaking/ct-chicago-shootings-violence-20170101-story.html","ID":"14679","LAT":"41.88006654381752","LNG":" -87.75358155369759","IS_FATAL":"0","HOUR":"22:55:00","HOUR_HH":"22","MINUTES_MM":"55"},{"DATE":"2017-01-01","SEX":"F","UCR":"041A","AGE":"48","TIME":"21:40","LOCATION":"4100 W 15th St, Chicago, IL 60623","GEOCODE_OVERRIDE":"(41.8606922775507, -87.72761508822441)","LINK":"http://www.chicagotribune.com/news/local/breaking/ct-chicago-shootings-violence-20170101-story.html","ID":"14682","LAT":"41.8606922775507","LNG":" -87.72761508822441","IS_FATAL":"0","HOUR":"21:40:00","HOUR_HH":"21","MINUTES_MM":"40"},{"DATE":"2017-01-01","SEX":"M","UCR":"041A","AGE":"31","TIME":"15:30","LOCATION":"S Evans Ave & E 130th Pl, Chicago, IL 60827","GEOCODE_OVERRIDE":"(41.658701908369565, -87.6033875145764)","LINK":"http://www.chicagotribune.com/news/local/breaking/ct-chicago-shootings-violence-20170101-story.html","ID":"14683","LAT":"41.658701908369565","LNG":" -87.6033875145764","IS_FATAL":"0","HOUR":"15:30:00","HOUR_HH":"15","MINUTES_MM":"30"},{"DATE":"2017-01-01","SEX":"M","UCR":"041A","AGE":"19","TIME":"14:35","LOCATION":"6700 S Indiana Ave, Chicago, IL 60637","GEOCODE_OVERRIDE":"(41.772647857666016, -87.62074279785156)","LINK":"http://www.chicagotribune.com/news/local/breaking/ct-chicago-shootings-violence-20170101-story.html","ID":"14684","LAT":"41.772647857666016","LNG":" -87.62074279785156","IS_FATAL":"0","HOUR":"14:35:00","HOUR_HH":"14","MINUTES_MM":"35"},{"DATE":"2017-01-01","SEX":"M","UCR":"041A","AGE":"17","TIME":"13:40","LOCATION":"5300 S Fairfield Ave, Chicago, IL 60632","GEOCODE_OVERRIDE":"(41.79722213745117, -87.69303131103516)","LINK":"http://www.chicagotribune.com/news/local/breaking/ct-chicago-shootings-violence-20170101-story.html","ID":"14685","LAT":"41.79722213745117","LNG":" -87.69303131103516","IS_FATAL":"0","HOUR":"13:40:00","HOUR_HH":"13","MINUTES_MM":"40"},{"DATE":"2017-01-01","SEX":"M","UCR":"","AGE":"15","TIME":"12:05","LOCATION":"9900 S Halsted St, Chicago, IL 60628","GEOCODE_OVERRIDE":"(41.713924407958984, -87.64341735839844)","LINK":"http://www.chicagotribune.com/news/local/breaking/ct-chicago-shootings-violence-20170101-story.html","ID":"14686","LAT":"41.713924407958984","LNG":" -87.64341735839844","IS_FATAL":"0","HOUR":"12:05:00","HOUR_HH":"12","MINUTES_MM":"5"},{"DATE":"2017-01-01","SEX":"M","UCR":"041A","AGE":"27","TIME":"11:15","LOCATION":"5100 W North Ave, Chicago, IL 60639","GEOCODE_OVERRIDE":"(41.909847, -87.752868)","LINK":"http://www.chicagotribune.com/news/local/breaking/ct-chicago-shootings-violence-20170101-story.html","ID":"14687","LAT":"41.909847","LNG":" -87.752868","IS_FATAL":"0","HOUR":"11:15:00","HOUR_HH":"11","MINUTES_MM":"15"},{"DATE":"2017-01-01","SEX":"M","UCR":"","AGE":"40s","TIME":"02:20","LOCATION":"12000 S State St, Chicago, IL 60628","GEOCODE_OVERRIDE":"(41.67606107890606, -87.62265421450138)","LINK":"http://www.chicagotribune.com/news/local/breaking/-ct-new-years-eve-police-shooting-20170101-story.html?utm_source=dlvr.it&utm_medium=twitter","ID":"14696","LAT":"41.67606107890606","LNG":" -87.62265421450138","IS_FATAL":"0","HOUR":"02:20:00","HOUR_HH":"2","MINUTES_MM":"20"},{"DATE":"2017-01-01","SEX":"M","UCR":"041A","AGE":"16","TIME":"19:30","LOCATION":"3900 W Madison St, Chicago, IL 60624","GEOCODE_OVERRIDE":"(41.881317138671875, -87.72386169433594)","LINK":"http://www.chicagotribune.com/news/local/breaking/ct-chicago-shootings-violence-20170101-story.html","ID":"14698","LAT":"41.881317138671875","LNG":" -87.72386169433594","IS_FATAL":"0","HOUR":"19:30:00","HOUR_HH":"19","MINUTES_MM":"30"},{"DATE":"2017-01-01","SEX":"M","UCR":"","AGE":"38","TIME":"04:25","LOCATION":"4600 N Broadway, Chicago, IL 60613","GEOCODE_OVERRIDE":"(41.958133, -87.657066)","LINK":"http://www.chicagotribune.com/news/local/breaking/ct-chicago-shootings-violence-20161231-story.html","ID":"14700","LAT":"41.958133","LNG":" -87.657066","IS_FATAL":"0","HOUR":"04:25:00","HOUR_HH":"4","MINUTES_MM":"25"},{"DATE":"2017-01-01","SEX":"M","UCR":"","AGE":"31","TIME":"04:25","LOCATION":"4600 N Broadway, Chicago, IL 60613","GEOCODE_OVERRIDE":"(41.958133697509766, -87.65706634521484)","LINK":"http://www.chicagotribune.com/news/local/breaking/ct-chicago-shootings-violence-20161231-story.html","ID":"14701","LAT":"41.958133697509766","LNG":" -87.65706634521484","IS_FATAL":"0","HOUR":"04:25:00","HOUR_HH":"4","MINUTES_MM":"25"},{"DATE":"2017-01-02","SEX":"M","UCR":"041A","AGE":"26","TIME":"01:40","LOCATION":"2500 W 55th St, Chicago, IL 60632","GEOCODE_OVERRIDE":"(41.79408264160156, -87.68661499023438)","LINK":"http://www.chicagotribune.com/news/local/breaking/ct-chicago-shootings-violence-20170101-story.html","ID":"14680","LAT":"41.79408264160156","LNG":" -87.68661499023438","IS_FATAL":"0","HOUR":"01:40:00","HOUR_HH":"1","MINUTES_MM":"40"},{"DATE":"2017-01-02","SEX":"F","UCR":"041A","AGE":"21","TIME":"01:40","LOCATION":"2500 W 55th St, Chicago, IL 60632","GEOCODE_OVERRIDE":"(41.79408264160156, -87.68661499023438)","LINK":"http://www.chicagotribune.com/news/local/breaking/ct-chicago-shootings-violence-20170101-story.html","ID":"14681","LAT":"41.79408264160156","LNG":" -87.68661499023438","IS_FATAL":"0","HOUR":"01:40:00","HOUR_HH":"1","MINUTES_MM":"40"},{"DATE":"2017-01-02","SEX":"M","UCR":"041A","AGE":"20","TIME":"09:32","LOCATION":"300 S Homan Ave, Chicago, IL 60624","GEOCODE_OVERRIDE":"(41.87714226543903, -87.71093040704727)","LINK":"http://www.chicagotribune.com/news/local/breaking/ct-chicago-shootings-violence-20170102-story.html","ID":"14688","LAT":"41.87714226543903","LNG":" -87.71093040704727","IS_FATAL":"0","HOUR":"09:32:00","HOUR_HH":"9","MINUTES_MM":"32"},{"DATE":"2017-01-02","SEX":"M","UCR":"041A","AGE":"24","TIME":"15:17","LOCATION":"1700 N Lorel Ave, Chicago, IL 60639","GEOCODE_OVERRIDE":"(41.91141128540039, -87.75975036621094)","LINK":"http://www.chicagotribune.com/news/local/breaking/ct-chicago-shootings-violence-20170102-story.html","ID":"14689","LAT":"41.91141128540039","LNG":" -87.75975036621094","IS_FATAL":"0","HOUR":"15:17:00","HOUR_HH":"15","MINUTES_MM":"17"},{"DATE":"2017-01-02","SEX":"M","UCR":"041A","AGE":"21","TIME":"16:00","LOCATION":"5100 W Hirsch St, Chicago, IL 60651","GEOCODE_OVERRIDE":"(41.90593175590038, -87.75358557701111)","LINK":"http://www.chicagotribune.com/news/local/breaking/ct-chicago-shootings-violence-20170102-story.html","ID":"14690","LAT":"41.90593175590038","LNG":" -87.75358557701111","IS_FATAL":"0","HOUR":"16:00:00","HOUR_HH":"16","MINUTES_MM":"0"},{"DATE":"2017-01-02","SEX":"M","UCR":"041A","AGE":"16","TIME":"16:35","LOCATION":"3700 W 13th St, Chicago, IL 60623","GEOCODE_OVERRIDE":"(41.86447285115719, -87.71796517074108)","LINK":"http://www.chicagotribune.com/news/local/breaking/ct-chicago-shootings-violence-20170102-story.html","ID":"14691","LAT":"41.86447285115719","LNG":" -87.71796517074108","IS_FATAL":"0","HOUR":"16:35:00","HOUR_HH":"16","MINUTES_MM":"35"},{"DATE":"2017-01-02","SEX":"M","UCR":"041A","AGE":"22","TIME":"21:35","LOCATION":"2100 W 64th St, Chicago, IL 60636","GEOCODE_OVERRIDE":"(41.77752234041691, -87.67646536231041)","LINK":"http://www.chicagotribune.com/news/local/breaking/ct-chicago-shootings-violence-20170102-story.html","ID":"14692","LAT":"41.77752234041691","LNG":" -87.67646536231041","IS_FATAL":"0","HOUR":"21:35:00","HOUR_HH":"21","MINUTES_MM":"35"},{"DATE":"2017-01-02","SEX":"M","UCR":"041A","AGE":"25","TIME":"22:20","LOCATION":"7000 S Harper Ave, Chicago, IL 60637","GEOCODE_OVERRIDE":"(41.767669677734375, -87.58837890625)","LINK":"http://www.chicagotribune.com/news/local/breaking/ct-chicago-shootings-violence-20170102-story.html","ID":"14693","LAT":"41.767669677734375","LNG":" -87.58837890625","IS_FATAL":"0","HOUR":"22:20:00","HOUR_HH":"22","MINUTES_MM":"20"},{"DATE":"2017-01-02","SEX":"M","UCR":"041A","AGE":"32","TIME":"22:25","LOCATION":"4400 W Ogden Ave, Chicago, IL 60623","GEOCODE_OVERRIDE":"(41.84788513183594, -87.73474884033203)","LINK":"http://www.chicagotribune.com/news/local/breaking/ct-chicago-shootings-violence-20170102-story.html","ID":"14694","LAT":"41.84788513183594","LNG":" -87.73474884033203","IS_FATAL":"0","HOUR":"22:25:00","HOUR_HH":"22","MINUTES_MM":"25"},{"DATE":"2017-01-02","SEX":"M","UCR":"","AGE":"38","TIME":"09:15","LOCATION":"2500 N Lowell Ave, Chicago, IL 60639","GEOCODE_OVERRIDE":"(41.926335990428925, -87.7354645729065)","LINK":"http://www.chicagotribune.com/news/local/breaking/ct-man-fatally-shot-by-off-duty-officer-marking-second-police-shooting-in-two-days-20170102-story.html","ID":"14697","LAT":"41.926335990428925","LNG":" -87.7354645729065","IS_FATAL":"0","HOUR":"09:15:00","HOUR_HH":"9","MINUTES_MM":"15"},{"DATE":"2017-01-03","SEX":"M","UCR":"041A","AGE":"15","TIME":"00:23","LOCATION":"1700 N Lorel Ave, Chicago, IL 60639","GEOCODE_OVERRIDE":"(41.91141128540039, -87.75975036621094)","LINK":"http://www.chicagotribune.com/news/local/breaking/ct-chicago-shootings-violence-20170102-story.html","ID":"14695","LAT":"41.91141128540039","LNG":" -87.75975036621094","IS_FATAL":"0","HOUR":"00:23:00","HOUR_HH":"0","MINUTES_MM":"23"},{"DATE":"2017-01-03","SEX":"M","UCR":"110","AGE":"25","TIME":"23:13","LOCATION":"3200 W Lexington St, Chicago, IL 60624","GEOCODE_OVERRIDE":"(41.87191464006901, -87.70604409277439)","LINK":"http://www.chicagotribune.com/news/local/breaking/ct-three-shot-and-seriously-injured-in-east-garfield-park-20170103-story.html","ID":"14703","LAT":"41.87191464006901","LNG":" -87.70604409277439","IS_FATAL":"1","HOUR":"23:13:00","HOUR_HH":"23","MINUTES_MM":"13"},{"DATE":"2017-01-03","SEX":"M","UCR":"041A","AGE":"19","TIME":"23:06","LOCATION":"7500 S St Lawrence Ave, Chicago, IL 60619","GEOCODE_OVERRIDE":"(41.75836198031902, -87.61029727756977)","LINK":"http://www.chicagotribune.com/news/local/breaking/ct-three-shot-and-seriously-injured-in-east-garfield-park-20170103-story.html","ID":"14704","LAT":"41.75836198031902","LNG":" -87.61029727756977","IS_FATAL":"0","HOUR":"23:06:00","HOUR_HH":"23","MINUTES_MM":"6"},{"DATE":"2017-01-03","SEX":"F","UCR":"041A","AGE":"65","TIME":"12:00","LOCATION":"3400 W Fulton Blvd, Chicago, IL 60624","GEOCODE_OVERRIDE":"(41.88669204711914, -87.71134185791016)","LINK":"http://www.chicagotribune.com/news/local/breaking/ct-three-shot-and-seriously-injured-in-east-garfield-park-20170103-story.html","ID":"14705","LAT":"41.88669204711914","LNG":" -87.71134185791016","IS_FATAL":"0","HOUR":"12:00:00","HOUR_HH":"12","MINUTES_MM":"0"},{"DATE":"2017-01-03","SEX":"M","UCR":"041A","AGE":"23","TIME":"17:30","LOCATION":"6700 S Perry Ave, Chicago, IL 60621","GEOCODE_OVERRIDE":"(41.772592440247536, -87.62841828167439)","LINK":"http://www.chicagotribune.com/news/local/breaking/ct-three-shot-and-seriously-injured-in-east-garfield-park-20170103-story.html","ID":"14706","LAT":"41.772592440247536","LNG":" -87.62841828167439","IS_FATAL":"0","HOUR":"17:30:00","HOUR_HH":"17","MINUTES_MM":"30"},{"DATE":"2017-01-03","SEX":"M","UCR":"041A","AGE":"23","TIME":"16:26","LOCATION":"2700 W Roosevelt Rd, Chicago, IL 60608","GEOCODE_OVERRIDE":"(41.866851806640625, -87.69385528564453)","LINK":"http://www.chicagotribune.com/news/local/breaking/ct-three-shot-and-seriously-injured-in-east-garfield-park-20170103-story.html","ID":"14707","LAT":"41.866851806640625","LNG":" -87.69385528564453","IS_FATAL":"0","HOUR":"16:26:00","HOUR_HH":"16","MINUTES_MM":"26"},{"DATE":"2017-01-03","SEX":"M","UCR":"041A","AGE":"21","TIME":"16:51","LOCATION":"3400 W Polk St, Chicago, IL 60624","GEOCODE_OVERRIDE":"(41.86993408203125, -87.71934509277344)","LINK":"http://www.chicagotribune.com/news/local/breaking/ct-three-shot-and-seriously-injured-in-east-garfield-park-20170103-story.html","ID":"14708","LAT":"41.86993408203125","LNG":" -87.71934509277344","IS_FATAL":"0","HOUR":"16:51:00","HOUR_HH":"16","MINUTES_MM":"51"},{"DATE":"2017-01-03","SEX":"M","UCR":"031A","AGE":"34","TIME":"16:45","LOCATION":"5800 W Chicago Ave, Chicago, IL 60651","GEOCODE_OVERRIDE":"(41.89505386352539, -87.77043914794922)","LINK":"http://www.chicagotribune.com/news/local/breaking/ct-three-shot-and-seriously-injured-in-east-garfield-park-20170103-story.html","ID":"14709","LAT":"41.89505386352539","LNG":" -87.77043914794922","IS_FATAL":"0","HOUR":"16:45:00","HOUR_HH":"16","MINUTES_MM":"45"},{"DATE":"2017-01-03","SEX":"M","UCR":"031A","AGE":"35","TIME":"16:45","LOCATION":"5800 W Chicago Ave, Chicago, IL 60651","GEOCODE_OVERRIDE":"(41.89505386352539, -87.77043914794922)","LINK":"http://www.chicagotribune.com/news/local/breaking/ct-three-shot-and-seriously-injured-in-east-garfield-park-20170103-story.html","ID":"14710","LAT":"41.89505386352539","LNG":" -87.77043914794922","IS_FATAL":"0","HOUR":"16:45:00","HOUR_HH":"16","MINUTES_MM":"45"},{"DATE":"2017-01-03","SEX":"M","UCR":"041A","AGE":"32","TIME":"14:38","LOCATION":"7900 S King Dr, Chicago, IL 60619","GEOCODE_OVERRIDE":"(41.750963777303696, -87.61500522494316)","LINK":"http://www.chicagotribune.com/news/local/breaking/ct-three-shot-and-seriously-injured-in-east-garfield-park-20170103-story.html","ID":"14711","LAT":"41.750963777303696","LNG":" -87.61500522494316","IS_FATAL":"0","HOUR":"14:38:00","HOUR_HH":"14","MINUTES_MM":"38"},{"DATE":"2017-01-03","SEX":"M","UCR":"041A","AGE":"32","TIME":"12:50","LOCATION":"6900 S Lafayette Ave, Chicago, IL 60621","GEOCODE_OVERRIDE":"(41.768283, -87.627098)","LINK":"http://www.chicagotribune.com/news/local/breaking/ct-three-shot-and-seriously-injured-in-east-garfield-park-20170103-story.html","ID":"14712","LAT":"41.768283","LNG":" -87.627098","IS_FATAL":"0","HOUR":"12:50:00","HOUR_HH":"12","MINUTES_MM":"50"},{"DATE":"2017-01-03","SEX":"M","UCR":"110","AGE":"23","TIME":"23:13","LOCATION":"3213 W Lexington St, Chicago, IL 60624","GEOCODE_OVERRIDE":"(41.871824115514755, -87.70663350820541)","LINK":"http://www.chicagotribune.com/news/local/breaking/ct-three-shot-and-seriously-injured-in-east-garfield-park-20170103-story.html","ID":"14713","LAT":"41.871824115514755","LNG":" -87.70663350820541","IS_FATAL":"1","HOUR":"23:13:00","HOUR_HH":"23","MINUTES_MM":"13"},{"DATE":"2017-01-03","SEX":"M","UCR":"110","AGE":"16","TIME":"12:00","LOCATION":"3418 W Fulton Blvd, Chicago, IL 60624","GEOCODE_OVERRIDE":"(41.88668441772461, -87.71202087402344)","LINK":"http://www.chicagotribune.com/news/local/breaking/ct-three-shot-and-seriously-injured-in-east-garfield-park-20170103-story.html","ID":"14714","LAT":"41.88668441772461","LNG":" -87.71202087402344","IS_FATAL":"1","HOUR":"12:00:00","HOUR_HH":"12","MINUTES_MM":"0"},{"DATE":"2017-01-03","SEX":"M","UCR":"041A","AGE":"16","TIME":"21:05","LOCATION":"6100 S Cottage Grove Ave, Chicago, IL 60637","GEOCODE_OVERRIDE":"(41.78390197455883, -87.60605603456497)","LINK":"http://www.chicagotribune.com/news/local/breaking/ct-three-shot-and-seriously-injured-in-east-garfield-park-20170103-story.html","ID":"14718","LAT":"41.78390197455883","LNG":" -87.60605603456497","IS_FATAL":"0","HOUR":"21:05:00","HOUR_HH":"21","MINUTES_MM":"5"},{"DATE":"2017-01-03","SEX":"M","UCR":"110","AGE":"17","TIME":"12:00","LOCATION":"3400 W Fulton Blvd, Chicago, IL 60624","GEOCODE_OVERRIDE":"(41.88669204711914, -87.71134185791016)","LINK":"http://www.chicagotribune.com/news/local/breaking/ct-three-shot-and-seriously-injured-in-east-garfield-park-20170103-story.html","ID":"14719","LAT":"41.88669204711914","LNG":" -87.71134185791016","IS_FATAL":"1","HOUR":"12:00:00","HOUR_HH":"12","MINUTES_MM":"0"},{"DATE":"2017-01-04","SEX":"M","UCR":"041A","AGE":"18","TIME":"20:15","LOCATION":"4300 S Rockwell St, Chicago, IL 60632","GEOCODE_OVERRIDE":"(41.815471574664116, -87.68957667052746)","LINK":"http://www.chicagotribune.com/news/local/breaking/ct-chicago-shootings-violence-20170104-story.html","ID":"14716","LAT":"41.815471574664116","LNG":" -87.68957667052746","IS_FATAL":"0","HOUR":"20:15:00","HOUR_HH":"20","MINUTES_MM":"15"},{"DATE":"2017-01-04","SEX":"M","UCR":"041A","AGE":"21","TIME":"13:25","LOCATION":"1100 N Massasoit Ave, Chicago, IL 60651","GEOCODE_OVERRIDE":"(41.90039825439453, -87.76958465576172)","LINK":"http://www.chicagotribune.com/news/local/breaking/ct-chicago-shootings-violence-20170104-story.html","ID":"14717","LAT":"41.90039825439453","LNG":" -87.76958465576172","IS_FATAL":"0","HOUR":"13:25:00","HOUR_HH":"13","MINUTES_MM":"25"},{"DATE":"2017-01-05","SEX":"M","UCR":"041A","AGE":"31","TIME":"19:10","LOCATION":"2000 S Indiana Ave, Chicago, IL 60616","GEOCODE_OVERRIDE":"(41.85536205768585, -87.62231692671776)","LINK":"http://www.chicagotribune.com/news/local/breaking/ct-chicago-shootings-violence-20170105-story.html","ID":"14720","LAT":"41.85536205768585","LNG":" -87.62231692671776","IS_FATAL":"0","HOUR":"19:10:00","HOUR_HH":"19","MINUTES_MM":"10"},{"DATE":"2017-01-05","SEX":"F","UCR":"041A","AGE":"20","TIME":"22:23","LOCATION":"6800 S Lowe Ave, Chicago, IL 60621","GEOCODE_OVERRIDE":"(41.770565032958984, -87.64053344726562)","LINK":"http://www.chicagotribune.com/news/local/breaking/ct-chicago-shootings-violence-20170105-story.html","ID":"14721","LAT":"41.770565032958984","LNG":" -87.64053344726562","IS_FATAL":"0","HOUR":"22:23:00","HOUR_HH":"22","MINUTES_MM":"23"},{"DATE":"2017-01-05","SEX":"M","UCR":"110","AGE":"28","TIME":"23:13","LOCATION":"800 E 46th St, Chicago, IL 60653","GEOCODE_OVERRIDE":"(41.811404675245285, -87.60647512972355)","LINK":"http://www.chicagotribune.com/news/local/breaking/ct-chicago-shootings-violence-20170105-story.html","ID":"14723","LAT":"41.811404675245285","LNG":" -87.60647512972355","IS_FATAL":"1","HOUR":"23:13:00","HOUR_HH":"23","MINUTES_MM":"13"},{"DATE":"2017-01-06","SEX":"M","UCR":"041A","AGE":"28","TIME":"00:15","LOCATION":"5200 W Jackson Blvd, Chicago, IL 60644","GEOCODE_OVERRIDE":"(41.87712097167969, -87.7541732788086)","LINK":"http://www.chicagotribune.com/news/local/breaking/ct-chicago-shootings-violence-20170105-story.html","ID":"14722","LAT":"41.87712097167969","LNG":" -87.7541732788086","IS_FATAL":"0","HOUR":"00:15:00","HOUR_HH":"0","MINUTES_MM":"15"},{"DATE":"2017-01-06","SEX":"M","UCR":"","AGE":"26","TIME":"13:40","LOCATION":"3800 W Adams St, Chicago, IL 60624","GEOCODE_OVERRIDE":"(41.87807500362396, -87.72089414298534)","LINK":"http://www.chicagotribune.com/news/local/breaking/ct-chicago-shootings-violence-20170105-story.html","ID":"14724","LAT":"41.87807500362396","LNG":" -87.72089414298534","IS_FATAL":"0","HOUR":"13:40:00","HOUR_HH":"13","MINUTES_MM":"40"},{"DATE":"2017-01-06","SEX":"M","UCR":"","AGE":"20","TIME":"13:40","LOCATION":"3800 W Adams St, Chicago, IL 60624","GEOCODE_OVERRIDE":"(41.87807500362396, -87.72089414298534)","LINK":"","ID":"14725","LAT":"41.87807500362396","LNG":" -87.72089414298534","IS_FATAL":"0","HOUR":"13:40:00","HOUR_HH":"13","MINUTES_MM":"40"},{"DATE":"2017-01-06","SEX":"M","UCR":"","AGE":"19","TIME":"13:40","LOCATION":"3800 W Adams St, Chicago, IL 60624","GEOCODE_OVERRIDE":"(41.87807500362396, -87.72089414298534)","LINK":"http://www.chicagotribune.com/news/local/breaking/ct-chicago-violence-shootings-20170106-story.html","ID":"14726","LAT":"41.87807500362396","LNG":" -87.72089414298534","IS_FATAL":"0","HOUR":"13:40:00","HOUR_HH":"13","MINUTES_MM":"40"},{"DATE":"2017-01-06","SEX":"M","UCR":"041A","AGE":"23","TIME":"23:10","LOCATION":"3900 W Grenshaw St, Chicago, IL 60624","GEOCODE_OVERRIDE":"(41.86737060546875, -87.72295379638672)","LINK":"http://www.chicagotribune.com/news/local/breaking/ct-chicago-violence-shootings-20170106-story.html","ID":"14727","LAT":"41.86737060546875","LNG":" -87.72295379638672","IS_FATAL":"0","HOUR":"23:10:00","HOUR_HH":"23","MINUTES_MM":"10"},{"DATE":"2017-01-06","SEX":"M","UCR":"","AGE":"23","TIME":"17:45","LOCATION":"4800 S Wolcott Ave, Chicago, IL 60609","GEOCODE_OVERRIDE":"(41.80658721923828, -87.67256164550781)","LINK":"http://www.chicagotribune.com/news/local/breaking/ct-chicago-violence-shootings-20170106-story.html","ID":"14728","LAT":"41.80658721923828","LNG":" -87.67256164550781","IS_FATAL":"0","HOUR":"17:45:00","HOUR_HH":"17","MINUTES_MM":"45"},{"DATE":"2017-01-07","SEX":"M","UCR":"110","AGE":"","TIME":"09:50","LOCATION":"1300 W Hastings St, Chicago, IL 60608","GEOCODE_OVERRIDE":"(41.8643394112587, -87.65893913805485)","LINK":"http://www.chicagotribune.com/news/local/breaking/ct-chicago-shootings-violence-20170107-story.html","ID":"14729","LAT":"41.8643394112587","LNG":" -87.65893913805485","IS_FATAL":"1","HOUR":"09:50:00","HOUR_HH":"9","MINUTES_MM":"50"},{"DATE":"2017-01-07","SEX":"M","UCR":"041A","AGE":"25","TIME":"14:45","LOCATION":"10300 S Western Ave, Chicago, IL 60643","GEOCODE_OVERRIDE":"(41.706241965293884, -87.68167689442635)","LINK":"http://www.chicagotribune.com/news/local/breaking/ct-chicago-shootings-violence-20170107-story.html","ID":"14730","LAT":"41.706241965293884","LNG":" -87.68167689442635","IS_FATAL":"0","HOUR":"14:45:00","HOUR_HH":"14","MINUTES_MM":"45"},{"DATE":"2017-01-07","SEX":"M","UCR":"041A","AGE":"17","TIME":"21:25","LOCATION":"5300 S Maryland Ave, Chicago, IL 60615","GEOCODE_OVERRIDE":"(41.79848179221153, -87.60518699884415)","LINK":"http://www.chicagotribune.com/news/local/breaking/ct-chicago-shootings-violence-20170107-story.html","ID":"14731","LAT":"41.79848179221153","LNG":" -87.60518699884415","IS_FATAL":"0","HOUR":"21:25:00","HOUR_HH":"21","MINUTES_MM":"25"},{"DATE":"2017-01-07","SEX":"M","UCR":"041A","AGE":"24","TIME":"23:00","LOCATION":"800 S California Ave, Chicago, IL 60612","GEOCODE_OVERRIDE":"(41.87090301513672, -87.69625854492188)","LINK":"http://www.chicagotribune.com/news/local/breaking/ct-chicago-shootings-violence-20170107-story.html","ID":"14732","LAT":"41.87090301513672","LNG":" -87.69625854492188","IS_FATAL":"0","HOUR":"23:00:00","HOUR_HH":"23","MINUTES_MM":"0"},{"DATE":"2017-01-08","SEX":"M","UCR":"041A","AGE":"33","TIME":"00:01","LOCATION":"4900 W Roscoe St, Chicago, IL 60641","GEOCODE_OVERRIDE":"(41.94270324707031, -87.74964141845703)","LINK":"http://www.chicagotribune.com/news/local/breaking/ct-chicago-shootings-violence-20170107-story.html","ID":"14733","LAT":"41.94270324707031","LNG":" -87.74964141845703","IS_FATAL":"0","HOUR":"00:01:00","HOUR_HH":"0","MINUTES_MM":"1"},{"DATE":"2017-01-08","SEX":"M","UCR":"041A","AGE":"21","TIME":"21:39","LOCATION":"5400 S Laflin St, Chicago, IL 60609","GEOCODE_OVERRIDE":"(41.795753479003906, -87.66255950927734)","LINK":"http://www.chicagotribune.com/news/local/breaking/ct-chicago-shootings-violence-20170108-story.html","ID":"14734","LAT":"41.795753479003906","LNG":" -87.66255950927734","IS_FATAL":"0","HOUR":"21:39:00","HOUR_HH":"21","MINUTES_MM":"39"},{"DATE":"2017-01-08","SEX":"M","UCR":"","AGE":"21","TIME":"01:40","LOCATION":"5600 N Western Ave, Chicago, IL 60659","GEOCODE_OVERRIDE":"(41.98330610990524, -87.68949419260025)","LINK":"http://www.chicagotribune.com/news/local/breaking/ct-chicago-shootings-violence-20170107-story.html","ID":"14765","LAT":"41.98330610990524","LNG":" -87.68949419260025","IS_FATAL":"0","HOUR":"01:40:00","HOUR_HH":"1","MINUTES_MM":"40"},{"DATE":"2017-01-09","SEX":"M","UCR":"110","AGE":"21","TIME":"09:47","LOCATION":"4520 W Lexington St, Chicago, IL 60624","GEOCODE_OVERRIDE":"(41.871541142463684, -87.73864634335041)","LINK":"http://www.chicagotribune.com/news/local/breaking/ct-shooting-violence-20170109-story.html","ID":"9533","LAT":"41.871541142463684","LNG":" -87.73864634335041","IS_FATAL":"1","HOUR":"09:47:00","HOUR_HH":"9","MINUTES_MM":"47"},{"DATE":"2017-01-09","SEX":"","UCR":"041A","AGE":"24","TIME":"11:14","LOCATION":"4500 S Vincennes Ave, Chicago, IL 60653","GEOCODE_OVERRIDE":"(41.8129114061594, -87.61397458612919)","LINK":"http://www.chicagotribune.com/news/local/breaking/ct-shooting-violence-20170109-story.html","ID":"14737","LAT":"41.8129114061594","LNG":" -87.61397458612919","IS_FATAL":"0","HOUR":"11:14:00","HOUR_HH":"11","MINUTES_MM":"14"},{"DATE":"2017-01-09","SEX":"M","UCR":"041A","AGE":"23","TIME":"09:47","LOCATION":"4520 W Lexington St, Chicago, IL 60624","GEOCODE_OVERRIDE":"(41.871541142463684, -87.73864634335041)","LINK":"http://www.chicagotribune.com/news/local/breaking/ct-shooting-violence-20170109-story.html","ID":"14738","LAT":"41.871541142463684","LNG":" -87.73864634335041","IS_FATAL":"0","HOUR":"09:47:00","HOUR_HH":"9","MINUTES_MM":"47"},{"DATE":"2017-01-09","SEX":"M","UCR":"041A","AGE":"16","TIME":"15:10","LOCATION":"300 N Laramie Ave, Chicago, IL 60644","GEOCODE_OVERRIDE":"(41.885758861899376, -87.75533571839333)","LINK":"http://www.chicagotribune.com/news/local/breaking/ct-shooting-violence-20170109-story.html","ID":"14739","LAT":"41.885758861899376","LNG":" -87.75533571839333","IS_FATAL":"0","HOUR":"15:10:00","HOUR_HH":"15","MINUTES_MM":"10"},{"DATE":"2017-01-09","SEX":"M","UCR":"110","AGE":"26","TIME":"19:44","LOCATION":"1600 N Keystone Ave, Chicago, IL 60639","GEOCODE_OVERRIDE":"(41.910006031394005, -87.72762380540371)","LINK":"http://www.chicagotribune.com/news/local/breaking/ct-shooting-violence-20170109-story.html","ID":"14740","LAT":"41.910006031394005","LNG":" -87.72762380540371","IS_FATAL":"1","HOUR":"19:44:00","HOUR_HH":"19","MINUTES_MM":"44"},{"DATE":"2017-01-09","SEX":"F","UCR":"041A","AGE":"27","TIME":"23:51","LOCATION":"200 W 111th Pl, Chicago, IL 60628","GEOCODE_OVERRIDE":"(41.69166348874569, -87.62807428836823)","LINK":"http://www.chicagotribune.com/news/local/breaking/ct-shooting-violence-20170109-story.html","ID":"14741","LAT":"41.69166348874569","LNG":" -87.62807428836823","IS_FATAL":"0","HOUR":"23:51:00","HOUR_HH":"23","MINUTES_MM":"51"},{"DATE":"2017-01-09","SEX":"M","UCR":"041A","AGE":"37","TIME":"23:40","LOCATION":"700 N Long Ave, Chicago, IL 60644","GEOCODE_OVERRIDE":"(41.89307525753975, -87.76060625910759)","LINK":"http://www.chicagotribune.com/news/local/breaking/ct-shooting-violence-20170109-story.html","ID":"14742","LAT":"41.89307525753975","LNG":" -87.76060625910759","IS_FATAL":"0","HOUR":"23:40:00","HOUR_HH":"23","MINUTES_MM":"40"},{"DATE":"2017-01-10","SEX":"M","UCR":"041A","AGE":"32","TIME":"01:52","LOCATION":"7700 S Indiana Ave, Chicago, IL 60619","GEOCODE_OVERRIDE":"(41.75454330444336, -87.62032318115234)","LINK":"http://www.chicagotribune.com/news/local/breaking/ct-shooting-violence-20170109-story.html","ID":"14743","LAT":"41.75454330444336","LNG":" -87.62032318115234","IS_FATAL":"0","HOUR":"01:52:00","HOUR_HH":"1","MINUTES_MM":"52"},{"DATE":"2017-01-10","SEX":"M","UCR":"041A","AGE":"27","TIME":"13:53","LOCATION":"4400 W Van Buren St, Chicago, IL 60624","GEOCODE_OVERRIDE":"(41.875182911753654, -87.73545518517494)","LINK":"http://www.chicagotribune.com/news/local/breaking/ct-chicago-shootings-violence-20170110-story.html","ID":"14744","LAT":"41.875182911753654","LNG":" -87.73545518517494","IS_FATAL":"0","HOUR":"13:53:00","HOUR_HH":"13","MINUTES_MM":"53"},{"DATE":"2017-01-10","SEX":"M","UCR":"041A","AGE":"16","TIME":"14:32","LOCATION":"11400 S Vincennes Ave, Chicago, IL 60643","GEOCODE_OVERRIDE":"(41.68669891357422, -87.6670150756836)","LINK":"http://www.chicagotribune.com/news/local/breaking/ct-chicago-shootings-violence-20170110-story.html","ID":"14745","LAT":"41.68669891357422","LNG":" -87.6670150756836","IS_FATAL":"0","HOUR":"14:32:00","HOUR_HH":"14","MINUTES_MM":"32"},{"DATE":"2017-01-10","SEX":"M","UCR":"041A","AGE":"22","TIME":"21:10","LOCATION":"1500 S Kolin Ave, Chicago, IL 60623","GEOCODE_OVERRIDE":"(41.86043167114258, -87.73391723632812)","LINK":"http://www.chicagotribune.com/news/local/breaking/ct-chicago-shootings-violence-20170110-story.html","ID":"14746","LAT":"41.86043167114258","LNG":" -87.73391723632812","IS_FATAL":"0","HOUR":"21:10:00","HOUR_HH":"21","MINUTES_MM":"10"},{"DATE":"2017-01-10","SEX":"M","UCR":"1477","AGE":"22","TIME":"22:30","LOCATION":"1800 S Drake Ave, Chicago, IL 60623","GEOCODE_OVERRIDE":"(41.85708236694336, -87.71428680419922)","LINK":"http://www.chicagotribune.com/news/local/breaking/ct-chicago-shootings-violence-20170110-story.html","ID":"14929","LAT":"41.85708236694336","LNG":" -87.71428680419922","IS_FATAL":"0","HOUR":"22:30:00","HOUR_HH":"22","MINUTES_MM":"30"},{"DATE":"2017-01-11","SEX":"M","UCR":"041A","AGE":"20","TIME":"00:50","LOCATION":"10100 S Parnell Ave, Chicago, IL 60628","GEOCODE_OVERRIDE":"(41.71048355102539, -87.63720703125)","LINK":"http://www.chicagotribune.com/news/local/breaking/ct-chicago-shootings-violence-20170110-story.html","ID":"14747","LAT":"41.71048355102539","LNG":" -87.63720703125","IS_FATAL":"0","HOUR":"00:50:00","HOUR_HH":"0","MINUTES_MM":"50"},{"DATE":"2017-01-11","SEX":"M","UCR":"041A","AGE":"31","TIME":"02:34","LOCATION":"2805 W 55th St, Chicago, IL 60632","GEOCODE_OVERRIDE":"(41.793426513671875, -87.69408416748047)","LINK":"http://www.chicagotribune.com/news/local/breaking/ct-chicago-shootings-violence-20170110-story.html","ID":"14748","LAT":"41.793426513671875","LNG":" -87.69408416748047","IS_FATAL":"0","HOUR":"02:34:00","HOUR_HH":"2","MINUTES_MM":"34"},{"DATE":"2017-01-11","SEX":"M","UCR":"041A","AGE":"26","TIME":"09:30","LOCATION":"1300 N Lockwood Ave, Chicago, IL 60651","GEOCODE_OVERRIDE":"(41.904050186276436, -87.75834515690804)","LINK":"http://www.chicagotribune.com/news/local/breaking/ct-chicago-shootings-violence-20170111-story.html","ID":"14749","LAT":"41.904050186276436","LNG":" -87.75834515690804","IS_FATAL":"0","HOUR":"09:30:00","HOUR_HH":"9","MINUTES_MM":"30"},{"DATE":"2017-01-11","SEX":"M","UCR":"041A","AGE":"29","TIME":"09:30","LOCATION":"1300 N Lockwood Ave, Chicago, IL 60651","GEOCODE_OVERRIDE":"(41.904050186276436, -87.75834515690804)","LINK":"http://www.chicagotribune.com/news/local/breaking/ct-chicago-shootings-violence-20170111-story.html","ID":"14750","LAT":"41.904050186276436","LNG":" -87.75834515690804","IS_FATAL":"0","HOUR":"09:30:00","HOUR_HH":"9","MINUTES_MM":"30"},{"DATE":"2017-01-11","SEX":"M","UCR":"041A","AGE":"28","TIME":"14:00","LOCATION":"5200 S Paulina St, Chicago, IL 60609","GEOCODE_OVERRIDE":"(41.79934310913086, -87.66751861572266)","LINK":"http://www.chicagotribune.com/news/local/breaking/ct-chicago-shootings-violence-20170111-story.html","ID":"14751","LAT":"41.79934310913086","LNG":" -87.66751861572266","IS_FATAL":"0","HOUR":"14:00:00","HOUR_HH":"14","MINUTES_MM":"0"},{"DATE":"2017-01-11","SEX":"M","UCR":"041A","AGE":"21","TIME":"16:15","LOCATION":"5700 S Racine Ave, Chicago, IL 60636","GEOCODE_OVERRIDE":"(41.790372133255005, -87.65482731163502)","LINK":"http://www.chicagotribune.com/news/local/breaking/ct-chicago-shootings-violence-20170111-story.html","ID":"14752","LAT":"41.790372133255005","LNG":" -87.65482731163502","IS_FATAL":"0","HOUR":"16:15:00","HOUR_HH":"16","MINUTES_MM":"15"},{"DATE":"2017-01-11","SEX":"M","UCR":"041A","AGE":"16","TIME":"16:15","LOCATION":"5700 S Racine Ave, Chicago, IL 60636","GEOCODE_OVERRIDE":"(41.790372133255005, -87.65482731163502)","LINK":"http://www.chicagotribune.com/news/local/breaking/ct-chicago-shootings-violence-20170111-story.html","ID":"14753","LAT":"41.790372133255005","LNG":" -87.65482731163502","IS_FATAL":"0","HOUR":"16:15:00","HOUR_HH":"16","MINUTES_MM":"15"},{"DATE":"2017-01-11","SEX":"M","UCR":"041A","AGE":"21","TIME":"23:24","LOCATION":"2100 W Chicago Ave, Chicago, IL 60622","GEOCODE_OVERRIDE":"(41.89628601074219, -87.6798324584961)","LINK":"http://www.chicagotribune.com/news/local/breaking/ct-chicago-shootings-violence-20170111-story.html","ID":"14754","LAT":"41.89628601074219","LNG":" -87.6798324584961","IS_FATAL":"0","HOUR":"23:24:00","HOUR_HH":"23","MINUTES_MM":"24"},{"DATE":"2017-01-11","SEX":"M","UCR":"041A","AGE":"20","TIME":"23:35","LOCATION":"2800 W 59th St, Chicago, IL 60629","GEOCODE_OVERRIDE":"(41.78666305541992, -87.69378662109375)","LINK":"http://www.chicagotribune.com/news/local/breaking/ct-chicago-shootings-violence-20170111-story.html","ID":"14755","LAT":"41.78666305541992","LNG":" -87.69378662109375","IS_FATAL":"0","HOUR":"23:35:00","HOUR_HH":"23","MINUTES_MM":"35"},{"DATE":"2017-01-11","SEX":"M","UCR":"041A","AGE":"13","TIME":"15:15","LOCATION":"3500 W 16th St, Chicago, IL 60623","GEOCODE_OVERRIDE":"(41.85905143618584, -87.71296553313732)","LINK":"http://www.chicagotribune.com/news/local/breaking/ct-chicago-shootings-violence-20170111-story.html","ID":"14756","LAT":"41.85905143618584","LNG":" -87.71296553313732","IS_FATAL":"0","HOUR":"15:15:00","HOUR_HH":"15","MINUTES_MM":"15"},{"DATE":"2017-01-11","SEX":"M","UCR":"110","AGE":"18","TIME":"18:10","LOCATION":"4200 S Talman Ave, Chicago, IL 60632","GEOCODE_OVERRIDE":"(41.81729507446289, -87.691162109375)","LINK":"http://www.chicagotribune.com/news/local/breaking/ct-chicago-shootings-violence-20170111-story.html","ID":"14757","LAT":"41.81729507446289","LNG":" -87.691162109375","IS_FATAL":"1","HOUR":"18:10:00","HOUR_HH":"18","MINUTES_MM":"10"},{"DATE":"2017-01-11","SEX":"M","UCR":"041A","AGE":"22","TIME":"18:10","LOCATION":"4200 S Talman Ave, Chicago, IL 60632","GEOCODE_OVERRIDE":"(41.81729507446289, -87.691162109375)","LINK":"http://www.chicagotribune.com/news/local/breaking/ct-chicago-shootings-violence-20170111-story.html","ID":"14758","LAT":"41.81729507446289","LNG":" -87.691162109375","IS_FATAL":"0","HOUR":"18:10:00","HOUR_HH":"18","MINUTES_MM":"10"},{"DATE":"2017-01-11","SEX":"M","UCR":"041A","AGE":"18","TIME":"18:10","LOCATION":"4200 S Talman Ave, Chicago, IL 60632","GEOCODE_OVERRIDE":"(41.81729507446289, -87.691162109375)","LINK":"http://www.chicagotribune.com/news/local/breaking/ct-chicago-shootings-violence-20170111-story.html","ID":"14759","LAT":"41.81729507446289","LNG":" -87.691162109375","IS_FATAL":"0","HOUR":"18:10:00","HOUR_HH":"18","MINUTES_MM":"10"},{"DATE":"2017-01-11","SEX":"M","UCR":"041A","AGE":"25","TIME":"18:10","LOCATION":"4200 S Talman Ave, Chicago, IL 60632","GEOCODE_OVERRIDE":"(41.81729507446289, -87.691162109375)","LINK":"http://www.chicagotribune.com/news/local/breaking/ct-chicago-shootings-violence-20170111-story.html","ID":"14760","LAT":"41.81729507446289","LNG":" -87.691162109375","IS_FATAL":"0","HOUR":"18:10:00","HOUR_HH":"18","MINUTES_MM":"10"},{"DATE":"2017-01-11","SEX":"M","UCR":"041A","AGE":"21","TIME":"18:10","LOCATION":"4200 S Talman Ave, Chicago, IL 60632","GEOCODE_OVERRIDE":"(41.81729507446289, -87.691162109375)","LINK":"http://www.chicagotribune.com/news/local/breaking/ct-chicago-shootings-violence-20170111-story.html","ID":"14761","LAT":"41.81729507446289","LNG":" -87.691162109375","IS_FATAL":"0","HOUR":"18:10:00","HOUR_HH":"18","MINUTES_MM":"10"},{"DATE":"2017-01-12","SEX":"M","UCR":"041A","AGE":"36","TIME":"21:23","LOCATION":"2700 S Homan Ave, Chicago, IL 60623","GEOCODE_OVERRIDE":"(41.84249496459961, -87.710205078125)","LINK":"http://www.chicagotribune.com/news/local/breaking/ct-chicago-shootings-violence-20170112-story.html","ID":"14762","LAT":"41.84249496459961","LNG":" -87.710205078125","IS_FATAL":"0","HOUR":"21:23:00","HOUR_HH":"21","MINUTES_MM":"23"},{"DATE":"2017-01-12","SEX":"M","UCR":"041A","AGE":"23","TIME":"20:25","LOCATION":"9400 S Wentworth Ave, Chicago, IL 60620","GEOCODE_OVERRIDE":"(41.72335244715214, -87.62874014675617)","LINK":"http://www.chicagotribune.com/news/local/breaking/ct-chicago-shootings-violence-20170112-story.html","ID":"14763","LAT":"41.72335244715214","LNG":" -87.62874014675617","IS_FATAL":"0","HOUR":"20:25:00","HOUR_HH":"20","MINUTES_MM":"25"},{"DATE":"2017-01-12","SEX":"F","UCR":"041A","AGE":"27","TIME":"20:00","LOCATION":"8400 S Hoyne Ave, Chicago, IL 60620","GEOCODE_OVERRIDE":"(41.74095916748047, -87.67569732666016)","LINK":"http://www.chicagotribune.com/news/local/breaking/ct-chicago-shootings-violence-20170112-story.html","ID":"14764","LAT":"41.74095916748047","LNG":" -87.67569732666016","IS_FATAL":"0","HOUR":"20:00:00","HOUR_HH":"20","MINUTES_MM":"0"},{"DATE":"2017-01-12","SEX":"M","UCR":"110","AGE":"36","TIME":"21:23","LOCATION":"2700 S Homan Ave, Chicago, IL 60623","GEOCODE_OVERRIDE":"(41.84249496459961, -87.710205078125)","LINK":"http://www.chicagotribune.com/news/local/breaking/ct-chicago-shootings-violence-20170112-story.html","ID":"14811","LAT":"41.84249496459961","LNG":" -87.710205078125","IS_FATAL":"1","HOUR":"21:23:00","HOUR_HH":"21","MINUTES_MM":"23"},{"DATE":"2017-01-13","SEX":"M","UCR":"041A","AGE":"23","TIME":"11:25","LOCATION":"1900 S Homan Ave, Chicago, IL 60623","GEOCODE_OVERRIDE":"(41.85523986816406, -87.71052551269531)","LINK":"http://www.chicagotribune.com/news/local/breaking/ct-man-seriously-wounded-in-west-side-shooting-20170113-story.html","ID":"14766","LAT":"41.85523986816406","LNG":" -87.71052551269531","IS_FATAL":"0","HOUR":"11:25:00","HOUR_HH":"11","MINUTES_MM":"25"},{"DATE":"2017-01-13","SEX":"M","UCR":"041A","AGE":"19","TIME":"17:14","LOCATION":"4000 W Madison St, Chicago, IL 60624","GEOCODE_OVERRIDE":"(41.88113021850586, -87.72589111328125)","LINK":"","ID":"14767","LAT":"41.88113021850586","LNG":" -87.72589111328125","IS_FATAL":"0","HOUR":"17:14:00","HOUR_HH":"17","MINUTES_MM":"14"},{"DATE":"2017-01-13","SEX":"M","UCR":"110","AGE":"20","TIME":"21:50","LOCATION":"7200 S Washtenaw Ave, Chicago, IL 60629","GEOCODE_OVERRIDE":"(41.76261901855469, -87.69087982177734)","LINK":"http://www.chicagotribune.com/news/local/breaking/ct-man-seriously-wounded-in-west-side-shooting-20170113-story.html","ID":"14768","LAT":"41.76261901855469","LNG":" -87.69087982177734","IS_FATAL":"1","HOUR":"21:50:00","HOUR_HH":"21","MINUTES_MM":"50"},{"DATE":"2017-01-13","SEX":"M","UCR":"041A","AGE":"21","TIME":"23:40","LOCATION":"2300 S Kedzie Ave, Chicago, IL 60623","GEOCODE_OVERRIDE":"(41.849815368652344, -87.7055435180664)","LINK":"http://www.chicagotribune.com/news/local/breaking/ct-man-seriously-wounded-in-west-side-shooting-20170113-story.html","ID":"14769","LAT":"41.849815368652344","LNG":" -87.7055435180664","IS_FATAL":"0","HOUR":"23:40:00","HOUR_HH":"23","MINUTES_MM":"40"},{"DATE":"2017-01-13","SEX":"M","UCR":"041A","AGE":"28","TIME":"23:30","LOCATION":"10500 S Sangamon St, Chicago, IL 60643","GEOCODE_OVERRIDE":"(41.70308303833008, -87.6467056274414)","LINK":"http://www.chicagotribune.com/news/local/breaking/ct-man-seriously-wounded-in-west-side-shooting-20170113-story.html","ID":"14770","LAT":"41.70308303833008","LNG":" -87.6467056274414","IS_FATAL":"0","HOUR":"23:30:00","HOUR_HH":"23","MINUTES_MM":"30"},{"DATE":"2017-01-13","SEX":"M","UCR":"110","AGE":"21","TIME":"16:00","LOCATION":"600 N Central Ave, Chicago, IL 60644","GEOCODE_OVERRIDE":"(41.89127731323242, -87.76561737060547)","LINK":"http://www.chicagotribune.com/news/local/breaking/ct-man-seriously-wounded-in-west-side-shooting-20170113-story.html","ID":"14810","LAT":"41.89127731323242","LNG":" -87.76561737060547","IS_FATAL":"1","HOUR":"16:00:00","HOUR_HH":"16","MINUTES_MM":"0"},{"DATE":"2017-01-14","SEX":"M","UCR":"041A","AGE":"17","TIME":"00:30","LOCATION":"4000 W Ogden Ave, Chicago, IL 60623","GEOCODE_OVERRIDE":"(41.85106046497822, -87.72494159638882)","LINK":"http://www.chicagotribune.com/news/local/breaking/ct-man-seriously-wounded-in-west-side-shooting-20170113-story.html","ID":"14771","LAT":"41.85106046497822","LNG":" -87.72494159638882","IS_FATAL":"0","HOUR":"00:30:00","HOUR_HH":"0","MINUTES_MM":"30"},{"DATE":"2017-01-14","SEX":"M","UCR":"110","AGE":"25","TIME":"03:30","LOCATION":"6026 S Carpenter St, Chicago, IL 60621","GEOCODE_OVERRIDE":"(41.78424835205078, -87.65132904052734)","LINK":"http://www.chicagotribune.com/news/local/breaking/ct-man-seriously-wounded-in-west-side-shooting-20170113-story.html","ID":"14772","LAT":"41.78424835205078","LNG":" -87.65132904052734","IS_FATAL":"1","HOUR":"03:30:00","HOUR_HH":"3","MINUTES_MM":"30"},{"DATE":"2017-01-14","SEX":"F","UCR":"041A","AGE":"26","TIME":"03:30","LOCATION":"6026 S Carpenter St, Chicago, IL 60621","GEOCODE_OVERRIDE":"(41.78424835205078, -87.65132904052734)","LINK":"http://www.chicagotribune.com/news/local/breaking/ct-man-seriously-wounded-in-west-side-shooting-20170113-story.html","ID":"14773","LAT":"41.78424835205078","LNG":" -87.65132904052734","IS_FATAL":"0","HOUR":"03:30:00","HOUR_HH":"3","MINUTES_MM":"30"},{"DATE":"2017-01-14","SEX":"M","UCR":"110","AGE":"27","TIME":"08:05","LOCATION":"1100 S Francisco Ave, Chicago, IL 60612","GEOCODE_OVERRIDE":"(41.868175, -87.698745)","LINK":"http://www.chicagotribune.com/news/local/breaking/ct-chicago-shootings-violence-20170114-story.html","ID":"14774","LAT":"41.868175","LNG":" -87.698745","IS_FATAL":"1","HOUR":"08:05:00","HOUR_HH":"8","MINUTES_MM":"5"},{"DATE":"2017-01-14","SEX":"M","UCR":"041A","AGE":"39","TIME":"08:05","LOCATION":"1100 S Francisco Ave, Chicago, IL 60612","GEOCODE_OVERRIDE":"(41.868175, -87.698745)","LINK":"http://www.chicagotribune.com/news/local/breaking/ct-chicago-shootings-violence-20170114-story.html","ID":"14775","LAT":"41.868175","LNG":" -87.698745","IS_FATAL":"0","HOUR":"08:05:00","HOUR_HH":"8","MINUTES_MM":"5"},{"DATE":"2017-01-14","SEX":"M","UCR":"041A","AGE":"18","TIME":"09:45","LOCATION":"1500 S Hamlin Ave, Chicago, IL 60623","GEOCODE_OVERRIDE":"(41.860618591308594, -87.72047424316406)","LINK":"http://www.chicagotribune.com/news/local/breaking/ct-chicago-shootings-violence-20170114-story.html","ID":"14776","LAT":"41.860618591308594","LNG":" -87.72047424316406","IS_FATAL":"0","HOUR":"09:45:00","HOUR_HH":"9","MINUTES_MM":"45"},{"DATE":"2017-01-14","SEX":"M","UCR":"041A","AGE":"16","TIME":"11:44","LOCATION":"1900 W 70th St, Chicago, IL 60636","GEOCODE_OVERRIDE":"(41.76669493317604, -87.67131350934505)","LINK":"http://www.chicagotribune.com/news/local/breaking/ct-chicago-shootings-violence-20170114-story.html","ID":"14777","LAT":"41.76669493317604","LNG":" -87.67131350934505","IS_FATAL":"0","HOUR":"11:44:00","HOUR_HH":"11","MINUTES_MM":"44"},{"DATE":"2017-01-14","SEX":"M","UCR":"041A","AGE":"25","TIME":"13:30","LOCATION":"100 S Kilpatrick Ave, Chicago, IL 60644","GEOCODE_OVERRIDE":"(41.87913179397583, -87.74282589554787)","LINK":"http://www.chicagotribune.com/news/local/breaking/ct-chicago-shootings-violence-20170114-story.html","ID":"14778","LAT":"41.87913179397583","LNG":" -87.74282589554787","IS_FATAL":"0","HOUR":"13:30:00","HOUR_HH":"13","MINUTES_MM":"30"},{"DATE":"2017-01-14","SEX":"M","UCR":"041A","AGE":"23","TIME":"17:00","LOCATION":"200 N Kostner Ave, Chicago, IL 60624","GEOCODE_OVERRIDE":"(41.8833763897419, -87.73560404777527)","LINK":"http://www.chicagotribune.com/news/local/breaking/ct-chicago-shootings-violence-20170114-story.html","ID":"14779","LAT":"41.8833763897419","LNG":" -87.73560404777527","IS_FATAL":"0","HOUR":"17:00:00","HOUR_HH":"17","MINUTES_MM":"0"},{"DATE":"2017-01-14","SEX":"M","UCR":"041A","AGE":"18","TIME":"17:04","LOCATION":"400 S Central Ave, Chicago, IL 60644","GEOCODE_OVERRIDE":"(41.874588802456856, -87.76472546160221)","LINK":"http://www.chicagotribune.com/news/local/breaking/ct-chicago-shootings-violence-20170114-story.html","ID":"14780","LAT":"41.874588802456856","LNG":" -87.76472546160221","IS_FATAL":"0","HOUR":"17:04:00","HOUR_HH":"17","MINUTES_MM":"4"},{"DATE":"2017-01-14","SEX":"M","UCR":"110","AGE":"26","TIME":"18:55","LOCATION":"5500 W Rice St, Chicago, IL 60651","GEOCODE_OVERRIDE":"(41.89582251012325, -87.76374578475952)","LINK":"http://www.chicagotribune.com/news/local/breaking/ct-chicago-shootings-violence-20170114-story.html","ID":"14781","LAT":"41.89582251012325","LNG":" -87.76374578475952","IS_FATAL":"1","HOUR":"18:55:00","HOUR_HH":"18","MINUTES_MM":"55"},{"DATE":"2017-01-14","SEX":"M","UCR":"041A","AGE":"22","TIME":"20:48","LOCATION":"4900 W Hubbard St, Chicago, IL 60644","GEOCODE_OVERRIDE":"(41.888919830322266, -87.74825286865234)","LINK":"http://www.chicagotribune.com/news/local/breaking/ct-chicago-shootings-violence-20170114-story.html","ID":"14782","LAT":"41.888919830322266","LNG":" -87.74825286865234","IS_FATAL":"0","HOUR":"20:48:00","HOUR_HH":"20","MINUTES_MM":"48"},{"DATE":"2017-01-15","SEX":"M","UCR":"041A","AGE":"25","TIME":"03:50","LOCATION":"1400 N Rockwell St, Chicago, IL 60622","GEOCODE_OVERRIDE":"(41.9067458063364, -87.69209392368793)","LINK":"http://www.chicagotribune.com/news/local/breaking/ct-chicago-shootings-violence-20170114-story.html","ID":"14783","LAT":"41.9067458063364","LNG":" -87.69209392368793","IS_FATAL":"0","HOUR":"03:50:00","HOUR_HH":"3","MINUTES_MM":"50"},{"DATE":"2017-01-15","SEX":"M","UCR":"041A","AGE":"25","TIME":"05:05","LOCATION":"7300 S Union Ave, Chicago, IL 60621","GEOCODE_OVERRIDE":"(41.761451, -87.642227)","LINK":"http://www.chicagotribune.com/news/local/breaking/ct-chicago-shootings-violence-20170114-story.html","ID":"14784","LAT":"41.761451","LNG":" -87.642227","IS_FATAL":"0","HOUR":"05:05:00","HOUR_HH":"5","MINUTES_MM":"5"},{"DATE":"2017-01-15","SEX":"M","UCR":"110","AGE":"30s","TIME":"05:30","LOCATION":"2600 W Van Buren St, Chicago, IL 60612","GEOCODE_OVERRIDE":"(41.8760921806097, -87.69181497395039)","LINK":"http://www.chicagotribune.com/news/local/breaking/ct-chicago-shootings-violence-20170114-story.html","ID":"14785","LAT":"41.8760921806097","LNG":" -87.69181497395039","IS_FATAL":"1","HOUR":"05:30:00","HOUR_HH":"5","MINUTES_MM":"30"},{"DATE":"2017-01-15","SEX":"M","UCR":"","AGE":"34","TIME":"00:25","LOCATION":"3348 W Monroe St, Chicago, IL 60624","GEOCODE_OVERRIDE":"(41.879882, -87.710342)","LINK":"http://www.chicagotribune.com/news/local/breaking/ct-violence-officer-involved-shooting-20170115-story.html","ID":"14786","LAT":"41.879882","LNG":" -87.710342","IS_FATAL":"0","HOUR":"00:25:00","HOUR_HH":"0","MINUTES_MM":"25"},{"DATE":"2017-01-15","SEX":"F","UCR":"041A","AGE":"51","TIME":"00:25","LOCATION":"3400 W Madison St, Chicago, IL 60624","GEOCODE_OVERRIDE":"(41.88384246826172, -87.71672058105469)","LINK":"http://www.chicagotribune.com/news/local/breaking/ct-violence-officer-involved-shooting-20170115-story.html","ID":"14787","LAT":"41.88384246826172","LNG":" -87.71672058105469","IS_FATAL":"0","HOUR":"00:25:00","HOUR_HH":"0","MINUTES_MM":"25"},{"DATE":"2017-01-15","SEX":"F","UCR":"041A","AGE":"21","TIME":"00:25","LOCATION":"3400 W Madison St, Chicago, IL 60624","GEOCODE_OVERRIDE":"(41.88384246826172, -87.71672058105469)","LINK":"http://www.chicagotribune.com/news/local/breaking/ct-violence-officer-involved-shooting-20170115-story.html","ID":"14788","LAT":"41.88384246826172","LNG":" -87.71672058105469","IS_FATAL":"0","HOUR":"00:25:00","HOUR_HH":"0","MINUTES_MM":"25"},{"DATE":"2017-01-15","SEX":"M","UCR":"041A","AGE":"30","TIME":"00:25","LOCATION":"3400 W Madison St, Chicago, IL 60624","GEOCODE_OVERRIDE":"(41.88384246826172, -87.71672058105469)","LINK":"http://www.chicagotribune.com/news/local/breaking/ct-violence-officer-involved-shooting-20170115-story.html","ID":"14789","LAT":"41.88384246826172","LNG":" -87.71672058105469","IS_FATAL":"0","HOUR":"00:25:00","HOUR_HH":"0","MINUTES_MM":"25"},{"DATE":"2017-01-15","SEX":"M","UCR":"","AGE":"","TIME":"19:30","LOCATION":"4500 N Kedzie Ave, Chicago, IL 60625","GEOCODE_OVERRIDE":"(41.963135227561, -87.70836621522903)","LINK":"http://www.chicagotribune.com/news/local/breaking/ct-off-duty-officer-fires-shots-albany-park-20170115-story.html","ID":"14790","LAT":"41.963135227561","LNG":" -87.70836621522903","IS_FATAL":"0","HOUR":"19:30:00","HOUR_HH":"19","MINUTES_MM":"30"},{"DATE":"2017-01-15","SEX":"M","UCR":"041A","AGE":"31","TIME":"14:26","LOCATION":"4600 S Marshfield Ave, Chicago, IL 60609","GEOCODE_OVERRIDE":"(41.810279846191406, -87.66658020019531)","LINK":"http://www.chicagotribune.com/news/local/breaking/ct-chicago-shootings-violence-20170115-story.html","ID":"14791","LAT":"41.810279846191406","LNG":" -87.66658020019531","IS_FATAL":"0","HOUR":"14:26:00","HOUR_HH":"14","MINUTES_MM":"26"},{"DATE":"2017-01-15","SEX":"M","UCR":"041A","AGE":"60","TIME":"14:26","LOCATION":"4600 S Marshfield Ave, Chicago, IL 60609","GEOCODE_OVERRIDE":"(41.810279846191406, -87.66658020019531)","LINK":"http://www.chicagotribune.com/news/local/breaking/ct-chicago-shootings-violence-20170115-story.html","ID":"14792","LAT":"41.810279846191406","LNG":" -87.66658020019531","IS_FATAL":"0","HOUR":"14:26:00","HOUR_HH":"14","MINUTES_MM":"26"},{"DATE":"2017-01-15","SEX":"M","UCR":"041A","AGE":"16","TIME":"14:43","LOCATION":"6300 S Cottage Grove Ave, Chicago, IL 60637","GEOCODE_OVERRIDE":"(41.78017807006836, -87.60633087158203)","LINK":"http://www.chicagotribune.com/news/local/breaking/ct-chicago-shootings-violence-20170115-story.html","ID":"14793","LAT":"41.78017807006836","LNG":" -87.60633087158203","IS_FATAL":"0","HOUR":"14:43:00","HOUR_HH":"14","MINUTES_MM":"43"},{"DATE":"2017-01-15","SEX":"F","UCR":"041A","AGE":"36","TIME":"20:01","LOCATION":"600 W 95th St, Chicago, IL 60628","GEOCODE_OVERRIDE":"(41.721631810069084, -87.6385147869587)","LINK":"http://www.chicagotribune.com/news/local/breaking/ct-chicago-shootings-violence-20170115-story.html","ID":"14794","LAT":"41.721631810069084","LNG":" -87.6385147869587","IS_FATAL":"0","HOUR":"20:01:00","HOUR_HH":"20","MINUTES_MM":"1"},{"DATE":"2017-01-15","SEX":"M","UCR":"041A","AGE":"33","TIME":"20:11","LOCATION":"600 N Leclaire Ave, Chicago, IL 60644","GEOCODE_OVERRIDE":"(41.89146041870117, -87.75337982177734)","LINK":"http://www.chicagotribune.com/news/local/breaking/ct-chicago-shootings-violence-20170115-story.html","ID":"14795","LAT":"41.89146041870117","LNG":" -87.75337982177734","IS_FATAL":"0","HOUR":"20:11:00","HOUR_HH":"20","MINUTES_MM":"11"},{"DATE":"2017-01-15","SEX":"M","UCR":"110","AGE":"34","TIME":"01:13","LOCATION":"4700 W Polk St, Chicago, IL 60644","GEOCODE_OVERRIDE":"(41.870532631874084, -87.74264484643936)","LINK":"http://www.chicagotribune.com/news/local/breaking/ct-chicago-shootings-violence-20170114-story.html","ID":"14809","LAT":"41.870532631874084","LNG":" -87.74264484643936","IS_FATAL":"1","HOUR":"01:13:00","HOUR_HH":"1","MINUTES_MM":"13"},{"DATE":"2017-01-16","SEX":"M","UCR":"041A","AGE":"28","TIME":"00:23","LOCATION":"6900 S Normal Blvd, Chicago, IL 60621","GEOCODE_OVERRIDE":"(41.76942443847656, -87.63694763183594)","LINK":"http://www.chicagotribune.com/news/local/breaking/ct-chicago-shootings-violence-20170115-story.html","ID":"14796","LAT":"41.76942443847656","LNG":" -87.63694763183594","IS_FATAL":"0","HOUR":"00:23:00","HOUR_HH":"0","MINUTES_MM":"23"},{"DATE":"2017-01-16","SEX":"M","UCR":"110","AGE":"36","TIME":"01:10","LOCATION":"2200 W Chicago Ave, Chicago, IL 60622","GEOCODE_OVERRIDE":"(41.896095275878906, -87.68212127685547)","LINK":"http://www.chicagotribune.com/news/local/breaking/ct-chicago-shootings-violence-20170115-story.html","ID":"14797","LAT":"41.896095275878906","LNG":" -87.68212127685547","IS_FATAL":"1","HOUR":"01:10:00","HOUR_HH":"1","MINUTES_MM":"10"},{"DATE":"2017-01-16","SEX":"M","UCR":"041A","AGE":"28","TIME":"01:45","LOCATION":"7500 S Wentworth Ave, Chicago, IL 60620","GEOCODE_OVERRIDE":"(41.75801086425781, -87.63009643554688)","LINK":"http://www.chicagotribune.com/news/local/breaking/ct-chicago-shootings-violence-20170115-story.html","ID":"14798","LAT":"41.75801086425781","LNG":" -87.63009643554688","IS_FATAL":"0","HOUR":"01:45:00","HOUR_HH":"1","MINUTES_MM":"45"},{"DATE":"2017-01-16","SEX":"M","UCR":"041A","AGE":"17","TIME":"08:20","LOCATION":"4300 W 28th St, Chicago, IL 60623","GEOCODE_OVERRIDE":"(41.8405120074749, -87.73191533982754)","LINK":"http://www.chicagotribune.com/news/local/breaking/ct-chicago-shootings-violence-20170116-story.html","ID":"14799","LAT":"41.8405120074749","LNG":" -87.73191533982754","IS_FATAL":"0","HOUR":"08:20:00","HOUR_HH":"8","MINUTES_MM":"20"},{"DATE":"2017-01-16","SEX":"M","UCR":"041A","AGE":"28","TIME":"09:45","LOCATION":"800 E 79th St, Chicago, IL 60619","GEOCODE_OVERRIDE":"(41.751339957118034, -87.60504886507988)","LINK":"http://www.chicagotribune.com/news/local/breaking/ct-chicago-shootings-violence-20170116-story.html","ID":"14803","LAT":"41.751339957118034","LNG":" -87.60504886507988","IS_FATAL":"0","HOUR":"09:45:00","HOUR_HH":"9","MINUTES_MM":"45"},{"DATE":"2017-01-16","SEX":"M","UCR":"041A","AGE":"20","TIME":"14:57","LOCATION":"600 N Ridgeway Ave, Chicago, IL 60624","GEOCODE_OVERRIDE":"(41.89189910888672, -87.72020721435547)","LINK":"http://www.chicagotribune.com/news/local/breaking/ct-chicago-shootings-violence-20170116-story.html","ID":"14804","LAT":"41.89189910888672","LNG":" -87.72020721435547","IS_FATAL":"0","HOUR":"14:57:00","HOUR_HH":"14","MINUTES_MM":"57"},{"DATE":"2017-01-16","SEX":"F","UCR":"041A","AGE":"14","TIME":"17:46","LOCATION":"9100 S Commercial Ave, Chicago, IL 60617","GEOCODE_OVERRIDE":"(41.72991245985031, -87.55128733813763)","LINK":"http://www.chicagotribune.com/news/local/breaking/ct-chicago-shootings-violence-20170116-story.html","ID":"14805","LAT":"41.72991245985031","LNG":" -87.55128733813763","IS_FATAL":"0","HOUR":"17:46:00","HOUR_HH":"17","MINUTES_MM":"46"},{"DATE":"2017-01-16","SEX":"M","UCR":"041A","AGE":"20","TIME":"17:46","LOCATION":"9100 S Commercial Ave, Chicago, IL 60617","GEOCODE_OVERRIDE":"(41.72991245985031, -87.55128733813763)","LINK":"http://www.chicagotribune.com/news/local/breaking/ct-chicago-shootings-violence-20170116-story.html","ID":"14806","LAT":"41.72991245985031","LNG":" -87.55128733813763","IS_FATAL":"0","HOUR":"17:46:00","HOUR_HH":"17","MINUTES_MM":"46"},{"DATE":"2017-01-16","SEX":"M","UCR":"041A","AGE":"33","TIME":"21:27","LOCATION":"4200 W Ogden Ave, Chicago, IL 60623","GEOCODE_OVERRIDE":"(41.849361285567284, -87.72973202168941)","LINK":"http://www.chicagotribune.com/news/local/breaking/ct-chicago-shootings-violence-20170116-story.html","ID":"14807","LAT":"41.849361285567284","LNG":" -87.72973202168941","IS_FATAL":"0","HOUR":"21:27:00","HOUR_HH":"21","MINUTES_MM":"27"},{"DATE":"2017-01-16","SEX":"M","UCR":"110","AGE":"24","TIME":"11:36","LOCATION":"4820 W Hubbard St, Chicago, IL 60644","GEOCODE_OVERRIDE":"(41.88893127441406, -87.74645233154297)","LINK":"http://www.chicagotribune.com/news/local/breaking/ct-chicago-shootings-violence-20170116-story.html","ID":"14808","LAT":"41.88893127441406","LNG":" -87.74645233154297","IS_FATAL":"1","HOUR":"11:36:00","HOUR_HH":"11","MINUTES_MM":"36"},{"DATE":"2017-01-17","SEX":"M","UCR":"041A","AGE":"23","TIME":"09:15","LOCATION":"700 S California Ave, Chicago, IL 60612","GEOCODE_OVERRIDE":"(41.8726921081543, -87.69632720947266)","LINK":"http://www.chicagotribune.com/news/local/breaking/ct-shooting-violence-20170117-story.html","ID":"14812","LAT":"41.8726921081543","LNG":" -87.69632720947266","IS_FATAL":"0","HOUR":"09:15:00","HOUR_HH":"9","MINUTES_MM":"15"},{"DATE":"2017-01-17","SEX":"M","UCR":"041A","AGE":"20","TIME":"13:20","LOCATION":"100 W 111th St, Chicago, IL 60628","GEOCODE_OVERRIDE":"(41.69282150268555, -87.62603759765625)","LINK":"http://www.chicagotribune.com/news/local/breaking/ct-shooting-violence-20170117-story.html","ID":"14813","LAT":"41.69282150268555","LNG":" -87.62603759765625","IS_FATAL":"0","HOUR":"13:20:00","HOUR_HH":"13","MINUTES_MM":"20"},{"DATE":"2017-01-17","SEX":"M","UCR":"031A","AGE":"23","TIME":"14:25","LOCATION":"5000 W Madison St, Chicago, IL 60644","GEOCODE_OVERRIDE":"(41.880828857421875, -87.75068664550781)","LINK":"http://www.chicagotribune.com/news/local/breaking/ct-shooting-violence-20170117-story.html","ID":"14814","LAT":"41.880828857421875","LNG":" -87.75068664550781","IS_FATAL":"0","HOUR":"14:25:00","HOUR_HH":"14","MINUTES_MM":"25"},{"DATE":"2017-01-17","SEX":"M","UCR":"041A","AGE":"46","TIME":"14:48","LOCATION":"300 E 120th St, Chicago, IL 60628","GEOCODE_OVERRIDE":"(41.67633466422558, -87.61634632945061)","LINK":"http://www.chicagotribune.com/news/local/breaking/ct-shooting-violence-20170117-story.html","ID":"14815","LAT":"41.67633466422558","LNG":" -87.61634632945061","IS_FATAL":"0","HOUR":"14:48:00","HOUR_HH":"14","MINUTES_MM":"48"},{"DATE":"2017-01-17","SEX":"M","UCR":"041A","AGE":"17","TIME":"15:57","LOCATION":"4600 S Ellis Ave, Chicago, IL 60653","GEOCODE_OVERRIDE":"(41.81117248535156, -87.60231018066406)","LINK":"http://www.chicagotribune.com/news/local/breaking/ct-shooting-violence-20170117-story.html","ID":"14816","LAT":"41.81117248535156","LNG":" -87.60231018066406","IS_FATAL":"0","HOUR":"15:57:00","HOUR_HH":"15","MINUTES_MM":"57"},{"DATE":"2017-01-17","SEX":"M","UCR":"041A","AGE":"36","TIME":"18:10","LOCATION":"900 W Wilson Ave, Chicago, IL 60640","GEOCODE_OVERRIDE":"(41.96576690673828, -87.65239715576172)","LINK":"http://www.chicagotribune.com/news/local/breaking/ct-shooting-violence-20170117-story.html","ID":"14817","LAT":"41.96576690673828","LNG":" -87.65239715576172","IS_FATAL":"0","HOUR":"18:10:00","HOUR_HH":"18","MINUTES_MM":"10"},{"DATE":"2017-01-17","SEX":"M","UCR":"041A","AGE":"24","TIME":"19:30","LOCATION":"100 S Pulaski Rd, Chicago, IL 60624","GEOCODE_OVERRIDE":"(41.87969505786896, -87.72568054497242)","LINK":"http://www.chicagotribune.com/news/local/breaking/ct-shooting-violence-20170117-story.html","ID":"14818","LAT":"41.87969505786896","LNG":" -87.72568054497242","IS_FATAL":"0","HOUR":"19:30:00","HOUR_HH":"19","MINUTES_MM":"30"},{"DATE":"2017-01-17","SEX":"F","UCR":"5089","AGE":"5","TIME":"20:05","LOCATION":"3739 W Ferdinand St, Chicago, IL 60624","GEOCODE_OVERRIDE":"(41.8896484375, -87.72014617919922)","LINK":"http://www.chicagotribune.com/news/local/breaking/ct-shooting-violence-20170117-story.html","ID":"14819","LAT":"41.8896484375","LNG":" -87.72014617919922","IS_FATAL":"0","HOUR":"20:05:00","HOUR_HH":"20","MINUTES_MM":"5"},{"DATE":"2017-01-17","SEX":"M","UCR":"041A","AGE":"21","TIME":"20:34","LOCATION":"53 W 79th St, Chicago, IL 60620","GEOCODE_OVERRIDE":"(41.75088196992874, -87.6266010850668)","LINK":"http://www.chicagotribune.com/news/local/breaking/ct-shooting-violence-20170117-story.html","ID":"14820","LAT":"41.75088196992874","LNG":" -87.6266010850668","IS_FATAL":"0","HOUR":"20:34:00","HOUR_HH":"20","MINUTES_MM":"34"},{"DATE":"2017-01-17","SEX":"F","UCR":"041A","AGE":"17","TIME":"20:34","LOCATION":"53 W 79th St, Chicago, IL 60620","GEOCODE_OVERRIDE":"(41.75088196992874, -87.6266010850668)","LINK":"http://www.chicagotribune.com/news/local/breaking/ct-shooting-violence-20170117-story.html","ID":"14821","LAT":"41.75088196992874","LNG":" -87.6266010850668","IS_FATAL":"0","HOUR":"20:34:00","HOUR_HH":"20","MINUTES_MM":"34"},{"DATE":"2017-01-17","SEX":"M","UCR":"041A","AGE":"29","TIME":"22:05","LOCATION":"1300 S Troy St, Chicago, IL 60623","GEOCODE_OVERRIDE":"(41.86445999145508, -87.70474243164062)","LINK":"http://www.chicagotribune.com/news/local/breaking/ct-shooting-violence-20170117-story.html","ID":"14822","LAT":"41.86445999145508","LNG":" -87.70474243164062","IS_FATAL":"0","HOUR":"22:05:00","HOUR_HH":"22","MINUTES_MM":"5"},{"DATE":"2017-01-17","SEX":"M","UCR":"110","AGE":"26","TIME":"23:27","LOCATION":"118 N Central Park Ave, Chicago, IL 60624","GEOCODE_OVERRIDE":"(41.881972923874855, -87.71561421453953)","LINK":"http://www.chicagotribune.com/news/local/breaking/ct-shooting-violence-20170117-story.html","ID":"14823","LAT":"41.881972923874855","LNG":" -87.71561421453953","IS_FATAL":"1","HOUR":"23:27:00","HOUR_HH":"23","MINUTES_MM":"27"},{"DATE":"2017-01-17","SEX":"M","UCR":"110","AGE":"25","TIME":"21:03","LOCATION":"5100 S Blackstone Ave, Chicago, IL 60615","GEOCODE_OVERRIDE":"(41.8023119866848, -87.59053744375706)","LINK":"http://www.chicagotribune.com/news/local/breaking/ct-shooting-violence-20170117-story.html","ID":"14829","LAT":"41.8023119866848","LNG":" -87.59053744375706","IS_FATAL":"1","HOUR":"21:03:00","HOUR_HH":"21","MINUTES_MM":"3"},{"DATE":"2017-01-17","SEX":"M","UCR":"110","AGE":"28","TIME":"20:34","LOCATION":"53 W 79th St, Chicago, IL 60620","GEOCODE_OVERRIDE":"(41.75088196992874, -87.6266010850668)","LINK":"http://www.chicagotribune.com/news/local/breaking/ct-shooting-violence-20170117-story.html","ID":"14978","LAT":"41.75088196992874","LNG":" -87.6266010850668","IS_FATAL":"1","HOUR":"20:34:00","HOUR_HH":"20","MINUTES_MM":"34"},{"DATE":"2017-01-18","SEX":"M","UCR":"041A","AGE":"19","TIME":"01:59","LOCATION":"6800 S Ridgeland Ave, Chicago, IL 60649","GEOCODE_OVERRIDE":"(41.77137756347656, -87.58293914794922)","LINK":"http://www.chicagotribune.com/news/local/breaking/ct-shooting-violence-20170117-story.html","ID":"14824","LAT":"41.77137756347656","LNG":" -87.58293914794922","IS_FATAL":"0","HOUR":"01:59:00","HOUR_HH":"1","MINUTES_MM":"59"},{"DATE":"2017-01-18","SEX":"M","UCR":"110","AGE":"34","TIME":"09:20","LOCATION":"4700 W Flournoy St, Chicago, IL 60644","GEOCODE_OVERRIDE":"(41.87251281738281, -87.74275970458984)","LINK":"http://www.chicagotribune.com/news/local/breaking/ct-chicago-shootings-violence-20170118-story.html","ID":"14825","LAT":"41.87251281738281","LNG":" -87.74275970458984","IS_FATAL":"1","HOUR":"09:20:00","HOUR_HH":"9","MINUTES_MM":"20"},{"DATE":"2017-01-18","SEX":"M","UCR":"041A","AGE":"30","TIME":"18:40","LOCATION":"7900 S Laflin St, Chicago, IL 60620","GEOCODE_OVERRIDE":"(41.75027176737785, -87.6610567420721)","LINK":"http://www.chicagotribune.com/news/local/breaking/ct-chicago-shootings-violence-20170118-story.html","ID":"14826","LAT":"41.75027176737785","LNG":" -87.6610567420721","IS_FATAL":"0","HOUR":"18:40:00","HOUR_HH":"18","MINUTES_MM":"40"},{"DATE":"2017-01-18","SEX":"M","UCR":"041A","AGE":"24","TIME":"12:15","LOCATION":"1500 S Komensky Ave, Chicago, IL 60623","GEOCODE_OVERRIDE":"(41.86054611206055, -87.7265853881836)","LINK":"http://www.chicagotribune.com/news/local/breaking/ct-chicago-shootings-violence-20170118-story.html","ID":"14827","LAT":"41.86054611206055","LNG":" -87.7265853881836","IS_FATAL":"0","HOUR":"12:15:00","HOUR_HH":"12","MINUTES_MM":"15"},{"DATE":"2017-01-18","SEX":"M","UCR":"041A","AGE":"26","TIME":"11:17","LOCATION":"8300 S Cottage Grove Ave, Chicago, IL 60619","GEOCODE_OVERRIDE":"(41.7435417175293, -87.6054916381836)","LINK":"http://www.chicagotribune.com/news/local/breaking/ct-chicago-shootings-violence-20170118-story.html","ID":"14828","LAT":"41.7435417175293","LNG":" -87.6054916381836","IS_FATAL":"0","HOUR":"11:17:00","HOUR_HH":"11","MINUTES_MM":"17"},{"DATE":"2017-01-18","SEX":"M","UCR":"110","AGE":"16","TIME":"16:45","LOCATION":"6908 S Green St, Chicago, IL 60621","GEOCODE_OVERRIDE":"(41.76854632794857, -87.64577351510525)","LINK":"http://www.chicagotribune.com/news/local/breaking/ct-chicago-shootings-violence-20170118-story.html","ID":"14853","LAT":"41.76854632794857","LNG":" -87.64577351510525","IS_FATAL":"1","HOUR":"16:45:00","HOUR_HH":"16","MINUTES_MM":"45"},{"DATE":"2017-01-19","SEX":"M","UCR":"110","AGE":"15","TIME":"19:55","LOCATION":"7001 S Stewart Ave, Chicago, IL 60621","GEOCODE_OVERRIDE":"None","LINK":"http://www.chicagotribune.com/news/local/breaking/ct-man-seriously-wounded-in-shooting-in-englewood-20170119-story.html","ID":"14830","LAT":"","LNG":"","IS_FATAL":"1","HOUR":"19:55:00","HOUR_HH":"19","MINUTES_MM":"55"},{"DATE":"2017-01-19","SEX":"M","UCR":"110","AGE":"28","TIME":"22:00","LOCATION":"8045 S. Bishop St.","GEOCODE_OVERRIDE":"(41.74728775024414, -87.65937042236328)","LINK":"http://www.chicagotribune.com/news/local/breaking/ct-man-seriously-wounded-in-shooting-in-englewood-20170119-story.html","ID":"14831","LAT":"41.74728775024414","LNG":" -87.65937042236328","IS_FATAL":"1","HOUR":"22:00:00","HOUR_HH":"22","MINUTES_MM":"0"},{"DATE":"2017-01-19","SEX":"M","UCR":"","AGE":"37","TIME":"09:10","LOCATION":"7152 S Carpenter St, Chicago, IL 60621","GEOCODE_OVERRIDE":"(41.76354217529297, -87.65078735351562)","LINK":"http://www.chicagotribune.com/news/local/breaking/ct-man-seriously-wounded-in-shooting-in-englewood-20170119-story.html","ID":"14832","LAT":"41.76354217529297","LNG":" -87.65078735351562","IS_FATAL":"0","HOUR":"09:10:00","HOUR_HH":"9","MINUTES_MM":"10"},{"DATE":"2017-01-19","SEX":"M","UCR":"41","AGE":"50","TIME":"04:15","LOCATION":"5000 W Ohio St, Chicago, IL 60644","GEOCODE_OVERRIDE":"(41.8915901184082, -87.7507553100586)","LINK":"http://www.chicagotribune.com/news/local/breaking/ct-chicago-shootings-violence-20170118-story.html","ID":"14833","LAT":"41.8915901184082","LNG":" -87.7507553100586","IS_FATAL":"0","HOUR":"04:15:00","HOUR_HH":"4","MINUTES_MM":"15"},{"DATE":"2017-01-19","SEX":"M","UCR":"041A","AGE":"49","TIME":"19:50","LOCATION":"700 S Lawndale Ave, Chicago, IL 60624","GEOCODE_OVERRIDE":"(41.87249198555946, -87.71809592843056)","LINK":"http://www.chicagotribune.com/news/local/breaking/ct-man-seriously-wounded-in-shooting-in-englewood-20170119-story.html","ID":"14836","LAT":"41.87249198555946","LNG":" -87.71809592843056","IS_FATAL":"0","HOUR":"19:50:00","HOUR_HH":"19","MINUTES_MM":"50"},{"DATE":"2017-01-19","SEX":"M","UCR":"041A","AGE":"21","TIME":"19:00","LOCATION":"7100 S Woodlawn Ave, Chicago, IL 60619","GEOCODE_OVERRIDE":"(41.76584243774414, -87.5962142944336)","LINK":"http://www.chicagotribune.com/news/local/breaking/ct-man-seriously-wounded-in-shooting-in-englewood-20170119-story.html","ID":"14837","LAT":"41.76584243774414","LNG":" -87.5962142944336","IS_FATAL":"0","HOUR":"19:00:00","HOUR_HH":"19","MINUTES_MM":"0"},{"DATE":"2017-01-19","SEX":"M","UCR":"041A","AGE":"32","TIME":"18:25","LOCATION":"6700 S. Normal Ave.","GEOCODE_OVERRIDE":"(41.772430419921875, -87.63763427734375)","LINK":"http://www.chicagotribune.com/news/local/breaking/ct-man-seriously-wounded-in-shooting-in-englewood-20170119-story.html","ID":"14838","LAT":"41.772430419921875","LNG":" -87.63763427734375","IS_FATAL":"0","HOUR":"18:25:00","HOUR_HH":"18","MINUTES_MM":"25"},{"DATE":"2017-01-19","SEX":"M","UCR":"041A","AGE":"16","TIME":"18:05","LOCATION":"11000 S Ewing Ave, Chicago, IL 60617","GEOCODE_OVERRIDE":"(41.69533275067806, -87.53532014787197)","LINK":"http://www.chicagotribune.com/news/local/breaking/ct-man-seriously-wounded-in-shooting-in-englewood-20170119-story.html","ID":"14839","LAT":"41.69533275067806","LNG":" -87.53532014787197","IS_FATAL":"0","HOUR":"18:05:00","HOUR_HH":"18","MINUTES_MM":"5"},{"DATE":"2017-01-19","SEX":"M","UCR":"041A","AGE":"18","TIME":"17:50","LOCATION":"4800 S Throop St, Chicago, IL 60609","GEOCODE_OVERRIDE":"(41.80675506591797, -87.6579818725586)","LINK":"http://www.chicagotribune.com/news/local/breaking/ct-man-seriously-wounded-in-shooting-in-englewood-20170119-story.html","ID":"14840","LAT":"41.80675506591797","LNG":" -87.6579818725586","IS_FATAL":"0","HOUR":"17:50:00","HOUR_HH":"17","MINUTES_MM":"50"},{"DATE":"2017-01-19","SEX":"M","UCR":"041A","AGE":"20","TIME":"12:20","LOCATION":"7700 S Michigan Ave, Chicago, IL 60619","GEOCODE_OVERRIDE":"(41.754497, -87.621932)","LINK":"http://www.chicagotribune.com/news/local/breaking/ct-man-seriously-wounded-in-shooting-in-englewood-20170119-story.html","ID":"14841","LAT":"41.754497","LNG":" -87.621932","IS_FATAL":"0","HOUR":"12:20:00","HOUR_HH":"12","MINUTES_MM":"20"},{"DATE":"2017-01-20","SEX":"M","UCR":"041A","AGE":"18","TIME":"06:30","LOCATION":"3700 W Chicago Ave, Chicago, IL 60651","GEOCODE_OVERRIDE":"(41.89571762084961, -87.7189712524414)","LINK":"http://www.chicagotribune.com/news/local/breaking/ct-man-seriously-wounded-in-shooting-in-englewood-20170119-story.html","ID":"14834","LAT":"41.89571762084961","LNG":" -87.7189712524414","IS_FATAL":"0","HOUR":"06:30:00","HOUR_HH":"6","MINUTES_MM":"30"},{"DATE":"2017-01-20","SEX":"M","UCR":"041A","AGE":"48","TIME":"02:35","LOCATION":"5200 W Fullerton Ave, Chicago, IL 60639","GEOCODE_OVERRIDE":"(41.92440414428711, -87.75691986083984)","LINK":"http://www.chicagotribune.com/news/local/breaking/ct-man-seriously-wounded-in-shooting-in-englewood-20170119-story.html","ID":"14835","LAT":"41.92440414428711","LNG":" -87.75691986083984","IS_FATAL":"0","HOUR":"02:35:00","HOUR_HH":"2","MINUTES_MM":"35"},{"DATE":"2017-01-20","SEX":"M","UCR":"041B","AGE":"30","TIME":"16:16","LOCATION":"1400 W 49th St, Chicago, IL 60609","GEOCODE_OVERRIDE":"(41.80507332086563, -87.66020447015762)","LINK":"http://www.chicagotribune.com/news/local/breaking/ct-man-seriously-wounded-in-shooting-in-back-of-the-yards-20170120-story.html","ID":"14842","LAT":"41.80507332086563","LNG":" -87.66020447015762","IS_FATAL":"0","HOUR":"16:16:00","HOUR_HH":"16","MINUTES_MM":"16"},{"DATE":"2017-01-20","SEX":"F","UCR":"041A","AGE":"27","TIME":"21:15","LOCATION":"2900 E 91st St, Chicago, IL 60617","GEOCODE_OVERRIDE":"(41.730342864990234, -87.55376434326172)","LINK":"http://www.chicagotribune.com/news/local/breaking/ct-man-seriously-wounded-in-shooting-in-back-of-the-yards-20170120-story.html","ID":"14843","LAT":"41.730342864990234","LNG":" -87.55376434326172","IS_FATAL":"0","HOUR":"21:15:00","HOUR_HH":"21","MINUTES_MM":"15"},{"DATE":"2017-01-20","SEX":"M","UCR":"041A","AGE":"25","TIME":"21:05","LOCATION":"5200 W Congress Pkwy, Chicago, IL 60644","GEOCODE_OVERRIDE":"(41.873981952667236, -87.75500513613224)","LINK":"http://www.chicagotribune.com/news/local/breaking/ct-man-seriously-wounded-in-shooting-in-back-of-the-yards-20170120-story.html","ID":"14844","LAT":"41.873981952667236","LNG":" -87.75500513613224","IS_FATAL":"0","HOUR":"21:05:00","HOUR_HH":"21","MINUTES_MM":"5"},{"DATE":"2017-01-20","SEX":"M","UCR":"041A","AGE":"27","TIME":"21:05","LOCATION":"5200 W Congress Pkwy, Chicago, IL 60644","GEOCODE_OVERRIDE":"(41.873981952667236, -87.75500513613224)","LINK":"http://www.chicagotribune.com/news/local/breaking/ct-man-seriously-wounded-in-shooting-in-back-of-the-yards-20170120-story.html","ID":"14845","LAT":"41.873981952667236","LNG":" -87.75500513613224","IS_FATAL":"0","HOUR":"21:05:00","HOUR_HH":"21","MINUTES_MM":"5"},{"DATE":"2017-01-20","SEX":"M","UCR":"041A","AGE":"24","TIME":"23:08","LOCATION":"8100 S Drexel Ave, Chicago, IL 60619","GEOCODE_OVERRIDE":"(41.74751177430153, -87.60270595550537)","LINK":"http://www.chicagotribune.com/news/local/breaking/ct-man-seriously-wounded-in-shooting-in-back-of-the-yards-20170120-story.html","ID":"14846","LAT":"41.74751177430153","LNG":" -87.60270595550537","IS_FATAL":"0","HOUR":"23:08:00","HOUR_HH":"23","MINUTES_MM":"8"},{"DATE":"2017-01-20","SEX":"M","UCR":"041A","AGE":"22","TIME":"21:05","LOCATION":"5200 W Congress Pkwy, Chicago, IL 60644","GEOCODE_OVERRIDE":"(41.873981952667236, -87.75500513613224)","LINK":"http://www.chicagotribune.com/news/local/breaking/ct-man-seriously-wounded-in-shooting-in-back-of-the-yards-20170120-story.html","ID":"14852","LAT":"41.873981952667236","LNG":" -87.75500513613224","IS_FATAL":"0","HOUR":"21:05:00","HOUR_HH":"21","MINUTES_MM":"5"},{"DATE":"2017-01-20","SEX":"M","UCR":"150","AGE":"20","TIME":"06:50","LOCATION":"12300 S Wallace St, Chicago, IL 60628","GEOCODE_OVERRIDE":"(41.67045056819916, -87.63691082596779)","LINK":"http://www.chicagotribune.com/news/local/breaking/ct-off-duty-robbins-police-officer-fatally-shoots-person-on-far-south-side-20170120-story.html","ID":"14909","LAT":"41.67045056819916","LNG":" -87.63691082596779","IS_FATAL":"0","HOUR":"06:50:00","HOUR_HH":"6","MINUTES_MM":"50"},{"DATE":"2017-01-20","SEX":"M","UCR":"110","AGE":"19","TIME":"17:40","LOCATION":"600 S Sacramento Blvd, Chicago, IL 60612","GEOCODE_OVERRIDE":"(41.87361180782318, -87.70106591284275)","LINK":"http://www.chicagotribune.com/news/local/breaking/ct-man-seriously-wounded-in-shooting-in-back-of-the-yards-20170120-story.html","ID":"14932","LAT":"41.87361180782318","LNG":" -87.70106591284275","IS_FATAL":"1","HOUR":"17:40:00","HOUR_HH":"17","MINUTES_MM":"40"},{"DATE":"2017-01-20","SEX":"M","UCR":"041A","AGE":"29","TIME":"19:23","LOCATION":"1600 N Mayfield Ave, Chicago, IL 60639","GEOCODE_OVERRIDE":"(41.9094058036949, -87.7727456697508)","LINK":"http://www.chicagotribune.com/news/local/breaking/ct-chicago-shootings-violence-20170420-story.html","ID":"15563","LAT":"41.9094058036949","LNG":" -87.7727456697508","IS_FATAL":"0","HOUR":"19:23:00","HOUR_HH":"19","MINUTES_MM":"23"},{"DATE":"2017-01-21","SEX":"M","UCR":"041A","AGE":"28","TIME":"2:05","LOCATION":"5400 W Ohio St, Chicago, IL 60644","GEOCODE_OVERRIDE":"(41.89118228852749, -87.76065520942211)","LINK":"http://www.chicagotribune.com/news/local/breaking/ct-man-seriously-wounded-in-shooting-in-back-of-the-yards-20170120-story.html","ID":"14847","LAT":"41.89118228852749","LNG":" -87.76065520942211","IS_FATAL":"0","HOUR":"02:05:00","HOUR_HH":"2","MINUTES_MM":"5"},{"DATE":"2017-01-21","SEX":"M","UCR":"110","AGE":"20","TIME":"3:15","LOCATION":"3954 W Thomas St, Chicago, IL 60651","GEOCODE_OVERRIDE":"(41.90089724957943, -87.72550620138645)","LINK":"http://www.chicagotribune.com/news/local/breaking/ct-man-seriously-wounded-in-shooting-in-back-of-the-yards-20170120-story.html","ID":"14848","LAT":"41.90089724957943","LNG":" -87.72550620138645","IS_FATAL":"1","HOUR":"03:15:00","HOUR_HH":"3","MINUTES_MM":"15"},{"DATE":"2017-01-21","SEX":"M","UCR":"041A","AGE":"36","TIME":"3:15","LOCATION":"3954 W Thomas St, Chicago, IL 60651","GEOCODE_OVERRIDE":"(41.90089724957943, -87.72550620138645)","LINK":"http://www.chicagotribune.com/news/local/breaking/ct-man-seriously-wounded-in-shooting-in-back-of-the-yards-20170120-story.html","ID":"14849","LAT":"41.90089724957943","LNG":" -87.72550620138645","IS_FATAL":"0","HOUR":"03:15:00","HOUR_HH":"3","MINUTES_MM":"15"},{"DATE":"2017-01-21","SEX":"M","UCR":"041A","AGE":"42","TIME":"3:15","LOCATION":"3954 W Thomas St, Chicago, IL 60651","GEOCODE_OVERRIDE":"(41.90089724957943, -87.72550620138645)","LINK":"http://www.chicagotribune.com/news/local/breaking/ct-man-seriously-wounded-in-shooting-in-back-of-the-yards-20170120-story.html","ID":"14850","LAT":"41.90089724957943","LNG":" -87.72550620138645","IS_FATAL":"0","HOUR":"03:15:00","HOUR_HH":"3","MINUTES_MM":"15"},{"DATE":"2017-01-21","SEX":"M","UCR":"041A","AGE":"26","TIME":"3:48","LOCATION":"7600 S Bishop St, Chicago, IL 60620","GEOCODE_OVERRIDE":"(41.7557258605957, -87.66080474853516)","LINK":"http://www.chicagotribune.com/news/local/breaking/ct-man-seriously-wounded-in-shooting-in-back-of-the-yards-20170120-story.html","ID":"14851","LAT":"41.7557258605957","LNG":" -87.66080474853516","IS_FATAL":"0","HOUR":"03:48:00","HOUR_HH":"3","MINUTES_MM":"48"},{"DATE":"2017-01-21","SEX":"M","UCR":"041A","AGE":"28","TIME":"3:15","LOCATION":"3801 S St Louis Ave, Chicago, IL 60632","GEOCODE_OVERRIDE":"(41.82416394352913, -87.71171562373638)","LINK":"http://www.chicagotribune.com/news/local/breaking/ct-man-seriously-wounded-in-shooting-in-back-of-the-yards-20170120-story.html","ID":"14854","LAT":"41.82416394352913","LNG":" -87.71171562373638","IS_FATAL":"0","HOUR":"03:15:00","HOUR_HH":"3","MINUTES_MM":"15"},{"DATE":"2017-01-21","SEX":"M","UCR":"041A","AGE":"22","TIME":"3:15","LOCATION":"3801 S St Louis Ave, Chicago, IL 60632","GEOCODE_OVERRIDE":"(41.82416394352913, -87.71171562373638)","LINK":"http://www.chicagotribune.com/news/local/breaking/ct-man-seriously-wounded-in-shooting-in-back-of-the-yards-20170120-story.html","ID":"14855","LAT":"41.82416394352913","LNG":" -87.71171562373638","IS_FATAL":"0","HOUR":"03:15:00","HOUR_HH":"3","MINUTES_MM":"15"},{"DATE":"2017-01-21","SEX":"M","UCR":"041A","AGE":"24","TIME":"11:35","LOCATION":"1 W 69th St, Chicago, IL 60621","GEOCODE_OVERRIDE":"(41.769116297364235, -87.62683980166912)","LINK":"http://www.chicagotribune.com/news/local/breaking/ct-chicago-shootings-violence-20170121-story.html","ID":"14856","LAT":"41.769116297364235","LNG":" -87.62683980166912","IS_FATAL":"0","HOUR":"11:35:00","HOUR_HH":"11","MINUTES_MM":"35"},{"DATE":"2017-01-21","SEX":"M","UCR":"110","AGE":"24","TIME":"13:42","LOCATION":"2654 W Monroe St, Chicago, IL 60612","GEOCODE_OVERRIDE":"(41.880254969000816, -87.692736312747)","LINK":"http://www.chicagotribune.com/news/local/breaking/ct-chicago-shootings-violence-20170121-story.html","ID":"14857","LAT":"41.880254969000816","LNG":" -87.692736312747","IS_FATAL":"1","HOUR":"13:42:00","HOUR_HH":"13","MINUTES_MM":"42"},{"DATE":"2017-01-21","SEX":"M","UCR":"041A","AGE":"27","TIME":"14:24","LOCATION":"4400 W Maypole Ave, Chicago, IL 60624","GEOCODE_OVERRIDE":"(41.88483428955078, -87.73595428466797)","LINK":"http://www.chicagotribune.com/news/local/breaking/ct-chicago-shootings-violence-20170121-story.html","ID":"14858","LAT":"41.88483428955078","LNG":" -87.73595428466797","IS_FATAL":"0","HOUR":"14:24:00","HOUR_HH":"14","MINUTES_MM":"24"},{"DATE":"2017-01-21","SEX":"M","UCR":"041A","AGE":"26","TIME":"16:08","LOCATION":"4400 W Fullerton Ave, Chicago, IL 60639","GEOCODE_OVERRIDE":"(41.92469787597656, -87.73709106445312)","LINK":"http://www.chicagotribune.com/news/local/breaking/ct-chicago-shootings-violence-20170121-story.html","ID":"14859","LAT":"41.92469787597656","LNG":" -87.73709106445312","IS_FATAL":"0","HOUR":"16:08:00","HOUR_HH":"16","MINUTES_MM":"8"},{"DATE":"2017-01-21","SEX":"M","UCR":"041A","AGE":"47","TIME":"16:44","LOCATION":"7700 S Racine Ave, Chicago, IL 60620","GEOCODE_OVERRIDE":"(41.754005432128906, -87.6542739868164)","LINK":"http://www.chicagotribune.com/news/local/breaking/ct-chicago-shootings-violence-20170121-story.html","ID":"14860","LAT":"41.754005432128906","LNG":" -87.6542739868164","IS_FATAL":"0","HOUR":"16:44:00","HOUR_HH":"16","MINUTES_MM":"44"},{"DATE":"2017-01-21","SEX":"M","UCR":"041A","AGE":"21","TIME":"17:14","LOCATION":"1300 N Mayfield Ave, Chicago, IL 60651","GEOCODE_OVERRIDE":"(41.90397644042969, -87.77335357666016)","LINK":"http://www.chicagotribune.com/news/local/breaking/ct-chicago-shootings-violence-20170121-story.html","ID":"14861","LAT":"41.90397644042969","LNG":" -87.77335357666016","IS_FATAL":"0","HOUR":"17:14:00","HOUR_HH":"17","MINUTES_MM":"14"},{"DATE":"2017-01-21","SEX":"M","UCR":"041A","AGE":"18","TIME":"17:14","LOCATION":"1300 N Mayfield Ave, Chicago, IL 60651","GEOCODE_OVERRIDE":"(41.90397644042969, -87.77335357666016)","LINK":"http://www.chicagotribune.com/news/local/breaking/ct-chicago-shootings-violence-20170121-story.html","ID":"14862","LAT":"41.90397644042969","LNG":" -87.77335357666016","IS_FATAL":"0","HOUR":"17:14:00","HOUR_HH":"17","MINUTES_MM":"14"},{"DATE":"2017-01-21","SEX":"M","UCR":"041A","AGE":"23","TIME":"17:14","LOCATION":"1300 N Mayfield Ave, Chicago, IL 60651","GEOCODE_OVERRIDE":"(41.90397644042969, -87.77335357666016)","LINK":"http://www.chicagotribune.com/news/local/breaking/ct-chicago-shootings-violence-20170121-story.html","ID":"14863","LAT":"41.90397644042969","LNG":" -87.77335357666016","IS_FATAL":"0","HOUR":"17:14:00","HOUR_HH":"17","MINUTES_MM":"14"},{"DATE":"2017-01-21","SEX":"F","UCR":"041A","AGE":"19","TIME":"19:37","LOCATION":"7900 S Exchange Ave, Chicago, IL 60617","GEOCODE_OVERRIDE":"(41.751772463321686, -87.55294024944305)","LINK":"http://www.chicagotribune.com/news/local/breaking/ct-chicago-shootings-violence-20170121-story.html","ID":"14864","LAT":"41.751772463321686","LNG":" -87.55294024944305","IS_FATAL":"0","HOUR":"19:37:00","HOUR_HH":"19","MINUTES_MM":"37"},{"DATE":"2017-01-21","SEX":"M","UCR":"041A","AGE":"22","TIME":"20:08","LOCATION":"300 S California Ave, Chicago, IL 60612","GEOCODE_OVERRIDE":"(41.877301186323166, -87.69623190164566)","LINK":"http://www.chicagotribune.com/news/local/breaking/ct-chicago-shootings-violence-20170121-story.html","ID":"14865","LAT":"41.877301186323166","LNG":" -87.69623190164566","IS_FATAL":"0","HOUR":"20:08:00","HOUR_HH":"20","MINUTES_MM":"8"},{"DATE":"2017-01-21","SEX":"M","UCR":"041A","AGE":"17","TIME":"20:08","LOCATION":"300 S California Ave, Chicago, IL 60612","GEOCODE_OVERRIDE":"(41.877301186323166, -87.69623190164566)","LINK":"http://www.chicagotribune.com/news/local/breaking/ct-chicago-shootings-violence-20170121-story.html","ID":"14866","LAT":"41.877301186323166","LNG":" -87.69623190164566","IS_FATAL":"0","HOUR":"20:08:00","HOUR_HH":"20","MINUTES_MM":"8"},{"DATE":"2017-01-21","SEX":"M","UCR":"041A","AGE":"18","TIME":"21:08","LOCATION":"7900 S Woodlawn Ave, Chicago, IL 60619","GEOCODE_OVERRIDE":"(41.75187683105469, -87.59595489501953)","LINK":"http://www.chicagotribune.com/news/local/breaking/ct-chicago-shootings-violence-20170121-story.html","ID":"14867","LAT":"41.75187683105469","LNG":" -87.59595489501953","IS_FATAL":"0","HOUR":"21:08:00","HOUR_HH":"21","MINUTES_MM":"8"},{"DATE":"2017-01-21","SEX":"M","UCR":"041A","AGE":"27","TIME":"21:39","LOCATION":"3300 W Monroe St, Chicago, IL 60624","GEOCODE_OVERRIDE":"(41.8799934387207, -87.70872497558594)","LINK":"http://www.chicagotribune.com/news/local/breaking/ct-chicago-shootings-violence-20170121-story.html","ID":"14868","LAT":"41.8799934387207","LNG":" -87.70872497558594","IS_FATAL":"0","HOUR":"21:39:00","HOUR_HH":"21","MINUTES_MM":"39"},{"DATE":"2017-01-21","SEX":"F","UCR":"041A","AGE":"20","TIME":"21:08","LOCATION":"7900 S Woodlawn Ave, Chicago, IL 60619","GEOCODE_OVERRIDE":"(41.75187683105469, -87.59595489501953)","LINK":"http://www.chicagotribune.com/news/local/breaking/ct-chicago-shootings-violence-20170121-story.html","ID":"14869","LAT":"41.75187683105469","LNG":" -87.59595489501953","IS_FATAL":"0","HOUR":"21:08:00","HOUR_HH":"21","MINUTES_MM":"8"},{"DATE":"2017-01-21","SEX":"M","UCR":"041A","AGE":"26","TIME":"22:44","LOCATION":"600 N St Louis Ave, Chicago, IL 60624","GEOCODE_OVERRIDE":"(41.89196, -87.714118)","LINK":"http://www.chicagotribune.com/news/local/breaking/ct-chicago-shootings-violence-20170121-story.html","ID":"14870","LAT":"41.89196","LNG":" -87.714118","IS_FATAL":"0","HOUR":"22:44:00","HOUR_HH":"22","MINUTES_MM":"44"},{"DATE":"2017-01-21","SEX":"F","UCR":"110","AGE":"27","TIME":"3:15","LOCATION":"3818 S St Louis Ave, Chicago, IL 60632","GEOCODE_OVERRIDE":"(41.82371601462364, -87.71183028817177)","LINK":"http://www.chicagotribune.com/news/local/breaking/ct-woman-dies-day-after-being-shot-on-southwest-side-20170122-story.html","ID":"14888","LAT":"41.82371601462364","LNG":" -87.71183028817177","IS_FATAL":"1","HOUR":"03:15:00","HOUR_HH":"3","MINUTES_MM":"15"},{"DATE":"2017-01-21","SEX":"M","UCR":"110","AGE":"20","TIME":"16:53","LOCATION":"33 W 104th Pl, Chicago, IL 60628","GEOCODE_OVERRIDE":"(41.70415115356445, -87.62480926513672)","LINK":"http://www.chicagotribune.com/news/local/breaking/ct-chicago-shootings-violence-20170121-story.html","ID":"14895","LAT":"41.70415115356445","LNG":" -87.62480926513672","IS_FATAL":"1","HOUR":"16:53:00","HOUR_HH":"16","MINUTES_MM":"53"},{"DATE":"2017-01-21","SEX":"M","UCR":"1477","AGE":"23","TIME":"23:15","LOCATION":"2 N Sacramento Blvd, Chicago, IL 60612","GEOCODE_OVERRIDE":"(41.88116759061813, -87.70126037299633)","LINK":"http://www.chicagotribune.com/news/local/breaking/ct-chicago-shootings-violence-20170121-story.html","ID":"15148","LAT":"41.88116759061813","LNG":" -87.70126037299633","IS_FATAL":"0","HOUR":"23:15:00","HOUR_HH":"23","MINUTES_MM":"15"},{"DATE":"2017-01-22","SEX":"M","UCR":"041A","AGE":"29","TIME":"00:19","LOCATION":"6100 N Winchester Ave, Chicago, IL 60660","GEOCODE_OVERRIDE":"(41.992271423339844, -87.67887115478516)","LINK":"http://www.chicagotribune.com/news/local/breaking/ct-chicago-shootings-violence-20170121-story.html","ID":"14871","LAT":"41.992271423339844","LNG":" -87.67887115478516","IS_FATAL":"0","HOUR":"00:19:00","HOUR_HH":"0","MINUTES_MM":"19"},{"DATE":"2017-01-22","SEX":"M","UCR":"041A","AGE":"28","TIME":"3:19","LOCATION":"9600 S Peoria St, Chicago, IL 60643","GEOCODE_OVERRIDE":"(41.71915817260742, -87.64592742919922)","LINK":"http://www.chicagotribune.com/news/local/breaking/ct-chicago-shootings-violence-20170121-story.html","ID":"14872","LAT":"41.71915817260742","LNG":" -87.64592742919922","IS_FATAL":"0","HOUR":"03:19:00","HOUR_HH":"3","MINUTES_MM":"19"},{"DATE":"2017-01-22","SEX":"M","UCR":"041A","AGE":"23","TIME":"2:48","LOCATION":"6501 W Irving Park Rd, Chicago, IL 60634","GEOCODE_OVERRIDE":"(41.95283085107803, -87.78915233910084)","LINK":"http://www.chicagotribune.com/news/local/breaking/ct-chicago-shootings-violence-20170121-story.html","ID":"14873","LAT":"41.95283085107803","LNG":" -87.78915233910084","IS_FATAL":"0","HOUR":"02:48:00","HOUR_HH":"2","MINUTES_MM":"48"},{"DATE":"2017-01-22","SEX":"M","UCR":"041A","AGE":"15","TIME":"4:23","LOCATION":"700 N Hamlin Ave, Chicago, IL 60624","GEOCODE_OVERRIDE":"(41.89370423555374, -87.72118180990219)","LINK":"http://www.chicagotribune.com/news/local/breaking/ct-chicago-shootings-violence-20170121-story.html","ID":"14874","LAT":"41.89370423555374","LNG":" -87.72118180990219","IS_FATAL":"0","HOUR":"04:23:00","HOUR_HH":"4","MINUTES_MM":"23"},{"DATE":"2017-01-22","SEX":"M","UCR":"041A","AGE":"17","TIME":"4:23","LOCATION":"700 N Hamlin Ave, Chicago, IL 60624","GEOCODE_OVERRIDE":"(41.89370423555374, -87.72118180990219)","LINK":"http://www.chicagotribune.com/news/local/breaking/ct-chicago-shootings-violence-20170121-story.html","ID":"14875","LAT":"41.89370423555374","LNG":" -87.72118180990219","IS_FATAL":"0","HOUR":"04:23:00","HOUR_HH":"4","MINUTES_MM":"23"},{"DATE":"2017-01-22","SEX":"M","UCR":"041A","AGE":"27","TIME":"3:40","LOCATION":"500 S Central Ave, Chicago, IL 60644","GEOCODE_OVERRIDE":"(41.873672157526016, -87.76469059288502)","LINK":"http://www.chicagotribune.com/news/local/breaking/ct-chicago-shootings-violence-20170121-story.html","ID":"14876","LAT":"41.873672157526016","LNG":" -87.76469059288502","IS_FATAL":"0","HOUR":"03:40:00","HOUR_HH":"3","MINUTES_MM":"40"},{"DATE":"2017-01-22","SEX":"M","UCR":"041A","AGE":"22","TIME":"6:31","LOCATION":"3400 S Calumet Ave, Chicago, IL 60616","GEOCODE_OVERRIDE":"(41.8327751159668, -87.61849975585938)","LINK":"http://www.chicagotribune.com/news/local/breaking/-chicago-shootings-violence-0122-20170122-story.html","ID":"14877","LAT":"41.8327751159668","LNG":" -87.61849975585938","IS_FATAL":"0","HOUR":"06:31:00","HOUR_HH":"6","MINUTES_MM":"31"},{"DATE":"2017-01-22","SEX":"M","UCR":"041A","AGE":"24","TIME":"6:31","LOCATION":"3400 S Calumet Ave, Chicago, IL 60616","GEOCODE_OVERRIDE":"(41.8327751159668, -87.61849975585938)","LINK":"http://www.chicagotribune.com/news/local/breaking/-chicago-shootings-violence-0122-20170122-story.html","ID":"14878","LAT":"41.8327751159668","LNG":" -87.61849975585938","IS_FATAL":"0","HOUR":"06:31:00","HOUR_HH":"6","MINUTES_MM":"31"},{"DATE":"2017-01-22","SEX":"F","UCR":"041A","AGE":"23","TIME":"6:31","LOCATION":"3400 S Calumet Ave, Chicago, IL 60616","GEOCODE_OVERRIDE":"(41.8327751159668, -87.61849975585938)","LINK":"http://www.chicagotribune.com/news/local/breaking/-chicago-shootings-violence-0122-20170122-story.html","ID":"14879","LAT":"41.8327751159668","LNG":" -87.61849975585938","IS_FATAL":"0","HOUR":"06:31:00","HOUR_HH":"6","MINUTES_MM":"31"},{"DATE":"2017-01-22","SEX":"M","UCR":"041A","AGE":"30","TIME":"8:50","LOCATION":"1500 W Huron St, Chicago, IL 60642","GEOCODE_OVERRIDE":"(41.89453887939453, -87.66578674316406)","LINK":"http://www.chicagotribune.com/news/local/breaking/-chicago-shootings-violence-0122-20170122-story.html","ID":"14880","LAT":"41.89453887939453","LNG":" -87.66578674316406","IS_FATAL":"0","HOUR":"08:50:00","HOUR_HH":"8","MINUTES_MM":"50"},{"DATE":"2017-01-22","SEX":"M","UCR":"041A","AGE":"26","TIME":"8:50","LOCATION":"1500 W Huron St, Chicago, IL 60642","GEOCODE_OVERRIDE":"(41.89453887939453, -87.66578674316406)","LINK":"http://www.chicagotribune.com/news/local/breaking/-chicago-shootings-violence-0122-20170122-story.html","ID":"14881","LAT":"41.89453887939453","LNG":" -87.66578674316406","IS_FATAL":"0","HOUR":"08:50:00","HOUR_HH":"8","MINUTES_MM":"50"},{"DATE":"2017-01-22","SEX":"M","UCR":"041A","AGE":"25","TIME":"8:50","LOCATION":"1500 W Huron St, Chicago, IL 60642","GEOCODE_OVERRIDE":"(41.89453887939453, -87.66578674316406)","LINK":"http://www.chicagotribune.com/news/local/breaking/-chicago-shootings-violence-0122-20170122-story.html","ID":"14882","LAT":"41.89453887939453","LNG":" -87.66578674316406","IS_FATAL":"0","HOUR":"08:50:00","HOUR_HH":"8","MINUTES_MM":"50"},{"DATE":"2017-01-22","SEX":"M","UCR":"041A","AGE":"27","TIME":"11:00","LOCATION":"1100 N Lockwood Ave, Chicago, IL 60651","GEOCODE_OVERRIDE":"(41.9005241394043, -87.7585678100586)","LINK":"http://www.chicagotribune.com/news/local/breaking/-chicago-shootings-violence-0122-20170122-story.html","ID":"14883","LAT":"41.9005241394043","LNG":" -87.7585678100586","IS_FATAL":"0","HOUR":"11:00:00","HOUR_HH":"11","MINUTES_MM":"0"},{"DATE":"2017-01-22","SEX":"M","UCR":"041A","AGE":"26","TIME":"12:15","LOCATION":"1800 W 63rd St, Chicago, IL 60636","GEOCODE_OVERRIDE":"(41.7796630859375, -87.66926574707031)","LINK":"http://www.chicagotribune.com/news/local/breaking/-chicago-shootings-violence-0122-20170122-story.html","ID":"14884","LAT":"41.7796630859375","LNG":" -87.66926574707031","IS_FATAL":"0","HOUR":"12:15:00","HOUR_HH":"12","MINUTES_MM":"15"},{"DATE":"2017-01-22","SEX":"M","UCR":"041A","AGE":"26","TIME":"12:15","LOCATION":"1800 W 63rd St, Chicago, IL 60636","GEOCODE_OVERRIDE":"(41.7796630859375, -87.66926574707031)","LINK":"http://www.chicagotribune.com/news/local/breaking/-chicago-shootings-violence-0122-20170122-story.html","ID":"14885","LAT":"41.7796630859375","LNG":" -87.66926574707031","IS_FATAL":"0","HOUR":"12:15:00","HOUR_HH":"12","MINUTES_MM":"15"},{"DATE":"2017-01-22","SEX":"F","UCR":"041A","AGE":"56","TIME":"12:15","LOCATION":"1800 W 63rd St, Chicago, IL 60636","GEOCODE_OVERRIDE":"(41.7796630859375, -87.66926574707031)","LINK":"http://www.chicagotribune.com/news/local/breaking/-chicago-shootings-violence-0122-20170122-story.html","ID":"14886","LAT":"41.7796630859375","LNG":" -87.66926574707031","IS_FATAL":"0","HOUR":"12:15:00","HOUR_HH":"12","MINUTES_MM":"15"},{"DATE":"2017-01-22","SEX":"F","UCR":"041A","AGE":"48","TIME":"12:15","LOCATION":"1800 W 63rd St, Chicago, IL 60636","GEOCODE_OVERRIDE":"(41.7796630859375, -87.66926574707031)","LINK":"http://www.chicagotribune.com/news/local/breaking/-chicago-shootings-violence-0122-20170122-story.html","ID":"14887","LAT":"41.7796630859375","LNG":" -87.66926574707031","IS_FATAL":"0","HOUR":"12:15:00","HOUR_HH":"12","MINUTES_MM":"15"},{"DATE":"2017-01-22","SEX":"M","UCR":"041A","AGE":"16","TIME":"21:24","LOCATION":"2800 S Hillock Ave, Chicago, IL 60608","GEOCODE_OVERRIDE":"(41.843971252441406, -87.65975189208984)","LINK":"http://www.chicagotribune.com/news/local/breaking/-chicago-shootings-violence-0122-20170122-story.html","ID":"14889","LAT":"41.843971252441406","LNG":" -87.65975189208984","IS_FATAL":"0","HOUR":"21:24:00","HOUR_HH":"21","MINUTES_MM":"24"},{"DATE":"2017-01-22","SEX":"M","UCR":"1477","AGE":"18","TIME":"22:45","LOCATION":"4200 W Iowa St, Chicago, IL 60651","GEOCODE_OVERRIDE":"(41.89736557006836, -87.73123931884766)","LINK":"http://www.chicagotribune.com/news/local/breaking/-chicago-shootings-violence-0122-20170122-story.html","ID":"14891","LAT":"41.89736557006836","LNG":" -87.73123931884766","IS_FATAL":"0","HOUR":"22:45:00","HOUR_HH":"22","MINUTES_MM":"45"},{"DATE":"2017-01-23","SEX":"M","UCR":"041A","AGE":"22","TIME":"00:30","LOCATION":"3600 N Central Ave, Chicago, IL 60634","GEOCODE_OVERRIDE":"(41.946972236037254, -87.71793767809868)","LINK":"http://www.chicagotribune.com/news/local/breaking/-chicago-shootings-violence-0122-20170122-story.html","ID":"14890","LAT":"41.946972236037254","LNG":" -87.71793767809868","IS_FATAL":"0","HOUR":"00:30:00","HOUR_HH":"0","MINUTES_MM":"30"},{"DATE":"2017-01-23","SEX":"F","UCR":"110","AGE":"20","TIME":"01:54","LOCATION":"5016 W Maypole Ave, Chicago, IL 60644","GEOCODE_OVERRIDE":"(41.884413063526154, -87.75083765387535)","LINK":"http://www.chicagotribune.com/news/local/breaking/-chicago-shootings-violence-0122-20170122-story.html","ID":"14892","LAT":"41.884413063526154","LNG":" -87.75083765387535","IS_FATAL":"1","HOUR":"01:54:00","HOUR_HH":"1","MINUTES_MM":"54"},{"DATE":"2017-01-23","SEX":"M","UCR":"041A","AGE":"24","TIME":"01:23","LOCATION":"2000 W Diversey Ave, Chicago, IL 60647","GEOCODE_OVERRIDE":"(41.93231463432312, -87.6790201663971)","LINK":"http://www.chicagotribune.com/news/local/breaking/-chicago-shootings-violence-0122-20170122-story.html","ID":"14893","LAT":"41.93231463432312","LNG":" -87.6790201663971","IS_FATAL":"0","HOUR":"01:23:00","HOUR_HH":"1","MINUTES_MM":"23"},{"DATE":"2017-01-23","SEX":"M","UCR":"041A","AGE":"20","TIME":"16:50","LOCATION":"1200 S Spaulding Ave, Chicago, IL 60623","GEOCODE_OVERRIDE":"(41.866251826286316, -87.70813755691051)","LINK":"http://www.chicagotribune.com/news/local/breaking/ct-chicago-shootings-violence-20170123-story.html","ID":"14896","LAT":"41.866251826286316","LNG":" -87.70813755691051","IS_FATAL":"0","HOUR":"16:50:00","HOUR_HH":"16","MINUTES_MM":"50"},