[{"":"10036","Date":"2017-01-01","Sex":"M","UCR":"110","Age":"39","Time":"05:53","Shooting Location":"4600 W Monroe St, Chicago, IL 60644","Geocode Override":"(41.8793423473835, -87.74075523018837)","Link":"http://www.chicagotribune.com/news/local/breaking/ct-chicago-shootings-violence-20161231-story.html","lat":"41.8793423473835","long":" -87.74075523018837","isFatal":"1","Hour":"05:53:00","Hour HH":"5","Minutes MM":"53"},{"":"15159","Date":"2017-01-01","Sex":"M","UCR":"041A","Age":"21","Time":"01:05","Shooting Location":"5500 W Drummond Pl, Chicago, IL 60639","Geocode Override":"(41.9288330078125, -87.76387023925781)","Link":"http://www.chicagotribune.com/news/local/breaking/ct-chicago-shootings-violence-20161231-story.html","lat":"41.9288330078125","long":" -87.76387023925781","isFatal":"0","Hour":"01:05:00","Hour HH":"1","Minutes MM":"5"},{"":"15160","Date":"2017-01-01","Sex":"M","UCR":"041A","Age":"19","Time":"01:05","Shooting Location":"5500 W Drummond Pl, Chicago, IL 60639","Geocode Override":"(41.9288330078125, -87.76387023925781)","Link":"http://www.chicagotribune.com/news/local/breaking/ct-chicago-shootings-violence-20161231-story.html","lat":"41.9288330078125","long":" -87.76387023925781","isFatal":"0","Hour":"01:05:00","Hour HH":"1","Minutes MM":"5"},{"":"15161","Date":"2017-01-01","Sex":"M","UCR":"041A","Age":"23","Time":"01:40","Shooting Location":"2300 W Jackson Blvd, Chicago, IL 60612","Geocode Override":"(41.877769470214844, -87.68408966064453)","Link":"http://www.chicagotribune.com/news/local/breaking/ct-chicago-shootings-violence-20161231-story.html","lat":"41.877769470214844","long":" -87.68408966064453","isFatal":"0","Hour":"01:40:00","Hour HH":"1","Minutes MM":"40"},{"":"15162","Date":"2017-01-01","Sex":"F","UCR":"041A","Age":"31","Time":"02:00","Shooting Location":"4400 S Indiana Ave, Chicago, IL 60653","Geocode Override":"(41.81458282470703, -87.62173461914062)","Link":"http://www.chicagotribune.com/news/local/breaking/ct-chicago-shootings-violence-20161231-story.html","lat":"41.81458282470703","long":" -87.62173461914062","isFatal":"0","Hour":"02:00:00","Hour HH":"2","Minutes MM":"0"},{"":"15163","Date":"2017-01-01","Sex":"M","UCR":"041A","Age":"33","Time":"02:00","Shooting Location":"4400 S Indiana Ave, Chicago, IL 60653","Geocode Override":"(41.81458282470703, -87.62173461914062)","Link":"http://www.chicagotribune.com/news/local/breaking/ct-chicago-shootings-violence-20161231-story.html","lat":"41.81458282470703","long":" -87.62173461914062","isFatal":"0","Hour":"02:00:00","Hour HH":"2","Minutes MM":"0"},{"":"15164","Date":"2017-01-01","Sex":"M","UCR":"041A","Age":"20","Time":"02:00","Shooting Location":"4400 S Indiana Ave, Chicago, IL 60653","Geocode Override":"(41.81458282470703, -87.62173461914062)","Link":"http://www.chicagotribune.com/news/local/breaking/ct-chicago-shootings-violence-20161231-story.html","lat":"41.81458282470703","long":" -87.62173461914062","isFatal":"0","Hour":"02:00:00","Hour HH":"2","Minutes MM":"0"},{"":"15165","Date":"2017-01-01","Sex":"M","UCR":"041A","Age":"22","Time":"02:13","Shooting Location":"200 W Pershing Rd, Chicago, IL 60609","Geocode Override":"(41.82369254529476, -87.63152495026588)","Link":"http://www.chicagotribune.com/news/local/breaking/ct-chicago-shootings-violence-20161231-story.html","lat":"41.82369254529476","long":" -87.63152495026588","isFatal":"0","Hour":"02:13:00","Hour HH":"2","Minutes MM":"13"},{"":"15166","Date":"2017-01-01","Sex":"F","UCR":"041A","Age":"29","Time":"02:15","Shooting Location":"9500 S State St, Chicago, IL 60628","Geocode Override":"(41.72157146036625, -87.6237827539444)","Link":"http://www.chicagotribune.com/news/local/breaking/ct-chicago-shootings-violence-20161231-story.html","lat":"41.72157146036625","long":" -87.6237827539444","isFatal":"0","Hour":"02:15:00","Hour HH":"2","Minutes MM":"15"},{"":"15167","Date":"2017-01-01","Sex":"F","UCR":"041A","Age":"26","Time":"02:20","Shooting Location":"200 W 71st St, Chicago, IL 60621","Geocode Override":"(41.76548056304455, -87.62994579970837)","Link":"http://www.chicagotribune.com/news/local/breaking/ct-chicago-shootings-violence-20161231-story.html","lat":"41.76548056304455","long":" -87.62994579970837","isFatal":"0","Hour":"02:20:00","Hour HH":"2","Minutes MM":"20"},{"":"15168","Date":"2017-01-01","Sex":"M","UCR":"041A","Age":"24","Time":"02:30","Shooting Location":"9200 S Parnell Ave, Chicago, IL 60620","Geocode Override":"(41.72688674926758, -87.63764953613281)","Link":"http://www.chicagotribune.com/news/local/breaking/ct-chicago-shootings-violence-20161231-story.html","lat":"41.72688674926758","long":" -87.63764953613281","isFatal":"0","Hour":"02:30:00","Hour HH":"2","Minutes MM":"30"},{"":"15169","Date":"2017-01-01","Sex":"M","UCR":"041A","Age":"19","Time":"03:46","Shooting Location":"11200 S Longwood Dr, Chicago, IL 60643","Geocode Override":"(41.68975830078125, -87.67268371582031)","Link":"http://www.chicagotribune.com/news/local/breaking/ct-chicago-shootings-violence-20161231-story.html","lat":"41.68975830078125","long":" -87.67268371582031","isFatal":"0","Hour":"03:46:00","Hour HH":"3","Minutes MM":"46"},{"":"15170","Date":"2017-01-01","Sex":"M","UCR":"041A","Age":"21","Time":"03:46","Shooting Location":"11200 S Longwood Dr, Chicago, IL 60643","Geocode Override":"(41.68975830078125, -87.67268371582031)","Link":"http://www.chicagotribune.com/news/local/breaking/ct-chicago-shootings-violence-20161231-story.html","lat":"41.68975830078125","long":" -87.67268371582031","isFatal":"0","Hour":"03:46:00","Hour HH":"3","Minutes MM":"46"},{"":"15171","Date":"2017-01-01","Sex":"M","UCR":"041A","Age":"20","Time":"03:46","Shooting Location":"11200 S Longwood Dr, Chicago, IL 60643","Geocode Override":"(41.68975830078125, -87.67268371582031)","Link":"http://www.chicagotribune.com/news/local/breaking/ct-chicago-shootings-violence-20161231-story.html","lat":"41.68975830078125","long":" -87.67268371582031","isFatal":"0","Hour":"03:46:00","Hour HH":"3","Minutes MM":"46"},{"":"15172","Date":"2017-01-01","Sex":"M","UCR":"041A","Age":"26","Time":"03:55","Shooting Location":"200 W 63rd St, Chicago, IL 60621","Geocode Override":"(41.780037581920624, -87.62969970703125)","Link":"http://www.chicagotribune.com/news/local/breaking/ct-chicago-shootings-violence-20161231-story.html","lat":"41.780037581920624","long":" -87.62969970703125","isFatal":"0","Hour":"03:55:00","Hour HH":"3","Minutes MM":"55"},{"":"15173","Date":"2017-01-01","Sex":"M","UCR":"041A","Age":"52","Time":"05:30","Shooting Location":"4800 S Racine Ave, Chicago, IL 60609","Geocode Override":"(41.806785583496094, -87.65555572509766)","Link":"http://www.chicagotribune.com/news/local/breaking/ct-chicago-shootings-violence-20161231-story.html","lat":"41.806785583496094","long":" -87.65555572509766","isFatal":"0","Hour":"05:30:00","Hour HH":"5","Minutes MM":"30"},{"":"15174","Date":"2017-01-01","Sex":"M","UCR":"041A","Age":"26","Time":"22:55","Shooting Location":"40 S Leamington Ave, Chicago, IL 60644","Geocode Override":"(41.88006654381752, -87.75358155369759)","Link":"http://www.chicagotribune.com/news/local/breaking/ct-chicago-shootings-violence-20170101-story.html","lat":"41.88006654381752","long":" -87.75358155369759","isFatal":"0","Hour":"22:55:00","Hour HH":"22","Minutes MM":"55"},{"":"15175","Date":"2017-01-01","Sex":"M","UCR":"041A","Age":"31","Time":"22:55","Shooting Location":"40 S Leamington Ave, Chicago, IL 60644","Geocode Override":"(41.88006654381752, -87.75358155369759)","Link":"http://www.chicagotribune.com/news/local/breaking/ct-chicago-shootings-violence-20170101-story.html","lat":"41.88006654381752","long":" -87.75358155369759","isFatal":"0","Hour":"22:55:00","Hour HH":"22","Minutes MM":"55"},{"":"15176","Date":"2017-01-01","Sex":"M","UCR":"041A","Age":"19","Time":"22:55","Shooting Location":"40 S Leamington Ave, Chicago, IL 60644","Geocode Override":"(41.88006654381752, -87.75358155369759)","Link":"http://www.chicagotribune.com/news/local/breaking/ct-chicago-shootings-violence-20170101-story.html","lat":"41.88006654381752","long":" -87.75358155369759","isFatal":"0","Hour":"22:55:00","Hour HH":"22","Minutes MM":"55"},{"":"15179","Date":"2017-01-01","Sex":"F","UCR":"041A","Age":"48","Time":"21:40","Shooting Location":"4100 W 15th St, Chicago, IL 60623","Geocode Override":"(41.8606922775507, -87.72761508822441)","Link":"http://www.chicagotribune.com/news/local/breaking/ct-chicago-shootings-violence-20170101-story.html","lat":"41.8606922775507","long":" -87.72761508822441","isFatal":"0","Hour":"21:40:00","Hour HH":"21","Minutes MM":"40"},{"":"15180","Date":"2017-01-01","Sex":"M","UCR":"041A","Age":"31","Time":"15:30","Shooting Location":"S Evans Ave & E 130th Pl, Chicago, IL 60827","Geocode Override":"(41.658701908369565, -87.6033875145764)","Link":"http://www.chicagotribune.com/news/local/breaking/ct-chicago-shootings-violence-20170101-story.html","lat":"41.658701908369565","long":" -87.6033875145764","isFatal":"0","Hour":"15:30:00","Hour HH":"15","Minutes MM":"30"},{"":"15181","Date":"2017-01-01","Sex":"M","UCR":"041A","Age":"19","Time":"14:35","Shooting Location":"6700 S Indiana Ave, Chicago, IL 60637","Geocode Override":"(41.772647857666016, -87.62074279785156)","Link":"http://www.chicagotribune.com/news/local/breaking/ct-chicago-shootings-violence-20170101-story.html","lat":"41.772647857666016","long":" -87.62074279785156","isFatal":"0","Hour":"14:35:00","Hour HH":"14","Minutes MM":"35"},{"":"15182","Date":"2017-01-01","Sex":"M","UCR":"041A","Age":"17","Time":"13:40","Shooting Location":"5300 S Fairfield Ave, Chicago, IL 60632","Geocode Override":"(41.79722213745117, -87.69303131103516)","Link":"http://www.chicagotribune.com/news/local/breaking/ct-chicago-shootings-violence-20170101-story.html","lat":"41.79722213745117","long":" -87.69303131103516","isFatal":"0","Hour":"13:40:00","Hour HH":"13","Minutes MM":"40"},{"":"15183","Date":"2017-01-01","Sex":"M","UCR":"","Age":"15","Time":"12:05","Shooting Location":"9900 S Halsted St, Chicago, IL 60628","Geocode Override":"(41.713924407958984, -87.64341735839844)","Link":"http://www.chicagotribune.com/news/local/breaking/ct-chicago-shootings-violence-20170101-story.html","lat":"41.713924407958984","long":" -87.64341735839844","isFatal":"0","Hour":"12:05:00","Hour HH":"12","Minutes MM":"5"},{"":"15184","Date":"2017-01-01","Sex":"M","UCR":"041A","Age":"27","Time":"11:15","Shooting Location":"5100 W North Ave, Chicago, IL 60639","Geocode Override":"(41.909847, -87.752868)","Link":"http://www.chicagotribune.com/news/local/breaking/ct-chicago-shootings-violence-20170101-story.html","lat":"41.909847","long":" -87.752868","isFatal":"0","Hour":"11:15:00","Hour HH":"11","Minutes MM":"15"},{"":"15193","Date":"2017-01-01","Sex":"M","UCR":"","Age":"40s","Time":"02:20","Shooting Location":"12000 S State St, Chicago, IL 60628","Geocode Override":"(41.67606107890606, -87.62265421450138)","Link":"http://www.chicagotribune.com/news/local/breaking/-ct-new-years-eve-police-shooting-20170101-story.html?utm_source=dlvr.it&utm_medium=twitter","lat":"41.67606107890606","long":" -87.62265421450138","isFatal":"0","Hour":"02:20:00","Hour HH":"2","Minutes MM":"20"},{"":"15195","Date":"2017-01-01","Sex":"M","UCR":"041A","Age":"16","Time":"19:30","Shooting Location":"3900 W Madison St, Chicago, IL 60624","Geocode Override":"(41.881317138671875, -87.72386169433594)","Link":"http://www.chicagotribune.com/news/local/breaking/ct-chicago-shootings-violence-20170101-story.html","lat":"41.881317138671875","long":" -87.72386169433594","isFatal":"0","Hour":"19:30:00","Hour HH":"19","Minutes MM":"30"},{"":"15197","Date":"2017-01-01","Sex":"M","UCR":"","Age":"38","Time":"04:25","Shooting Location":"4600 N Broadway, Chicago, IL 60613","Geocode Override":"(41.958133, -87.657066)","Link":"http://www.chicagotribune.com/news/local/breaking/ct-chicago-shootings-violence-20161231-story.html","lat":"41.958133","long":" -87.657066","isFatal":"0","Hour":"04:25:00","Hour HH":"4","Minutes MM":"25"},{"":"15198","Date":"2017-01-01","Sex":"M","UCR":"","Age":"31","Time":"04:25","Shooting Location":"4600 N Broadway, Chicago, IL 60613","Geocode Override":"(41.958133697509766, -87.65706634521484)","Link":"http://www.chicagotribune.com/news/local/breaking/ct-chicago-shootings-violence-20161231-story.html","lat":"41.958133697509766","long":" -87.65706634521484","isFatal":"0","Hour":"04:25:00","Hour HH":"4","Minutes MM":"25"},{"":"15177","Date":"2017-01-02","Sex":"M","UCR":"041A","Age":"26","Time":"01:40","Shooting Location":"2500 W 55th St, Chicago, IL 60632","Geocode Override":"(41.79408264160156, -87.68661499023438)","Link":"http://www.chicagotribune.com/news/local/breaking/ct-chicago-shootings-violence-20170101-story.html","lat":"41.79408264160156","long":" -87.68661499023438","isFatal":"0","Hour":"01:40:00","Hour HH":"1","Minutes MM":"40"},{"":"15178","Date":"2017-01-02","Sex":"F","UCR":"041A","Age":"21","Time":"01:40","Shooting Location":"2500 W 55th St, Chicago, IL 60632","Geocode Override":"(41.79408264160156, -87.68661499023438)","Link":"http://www.chicagotribune.com/news/local/breaking/ct-chicago-shootings-violence-20170101-story.html","lat":"41.79408264160156","long":" -87.68661499023438","isFatal":"0","Hour":"01:40:00","Hour HH":"1","Minutes MM":"40"},{"":"15185","Date":"2017-01-02","Sex":"M","UCR":"041A","Age":"20","Time":"09:32","Shooting Location":"300 S Homan Ave, Chicago, IL 60624","Geocode Override":"(41.87714226543903, -87.71093040704727)","Link":"http://www.chicagotribune.com/news/local/breaking/ct-chicago-shootings-violence-20170102-story.html","lat":"41.87714226543903","long":" -87.71093040704727","isFatal":"0","Hour":"09:32:00","Hour HH":"9","Minutes MM":"32"},{"":"15186","Date":"2017-01-02","Sex":"M","UCR":"041A","Age":"24","Time":"15:17","Shooting Location":"1700 N Lorel Ave, Chicago, IL 60639","Geocode Override":"(41.91141128540039, -87.75975036621094)","Link":"http://www.chicagotribune.com/news/local/breaking/ct-chicago-shootings-violence-20170102-story.html","lat":"41.91141128540039","long":" -87.75975036621094","isFatal":"0","Hour":"15:17:00","Hour HH":"15","Minutes MM":"17"},{"":"15187","Date":"2017-01-02","Sex":"M","UCR":"041A","Age":"21","Time":"16:00","Shooting Location":"5100 W Hirsch St, Chicago, IL 60651","Geocode Override":"(41.90593175590038, -87.75358557701111)","Link":"http://www.chicagotribune.com/news/local/breaking/ct-chicago-shootings-violence-20170102-story.html","lat":"41.90593175590038","long":" -87.75358557701111","isFatal":"0","Hour":"16:00:00","Hour HH":"16","Minutes MM":"0"},{"":"15188","Date":"2017-01-02","Sex":"M","UCR":"041A","Age":"16","Time":"16:35","Shooting Location":"3700 W 13th St, Chicago, IL 60623","Geocode Override":"(41.86447285115719, -87.71796517074108)","Link":"http://www.chicagotribune.com/news/local/breaking/ct-chicago-shootings-violence-20170102-story.html","lat":"41.86447285115719","long":" -87.71796517074108","isFatal":"0","Hour":"16:35:00","Hour HH":"16","Minutes MM":"35"},{"":"15189","Date":"2017-01-02","Sex":"M","UCR":"041A","Age":"22","Time":"21:35","Shooting Location":"2100 W 64th St, Chicago, IL 60636","Geocode Override":"(41.77752234041691, -87.67646536231041)","Link":"http://www.chicagotribune.com/news/local/breaking/ct-chicago-shootings-violence-20170102-story.html","lat":"41.77752234041691","long":" -87.67646536231041","isFatal":"0","Hour":"21:35:00","Hour HH":"21","Minutes MM":"35"},{"":"15190","Date":"2017-01-02","Sex":"M","UCR":"041A","Age":"25","Time":"22:20","Shooting Location":"7000 S Harper Ave, Chicago, IL 60637","Geocode Override":"(41.767669677734375, -87.58837890625)","Link":"http://www.chicagotribune.com/news/local/breaking/ct-chicago-shootings-violence-20170102-story.html","lat":"41.767669677734375","long":" -87.58837890625","isFatal":"0","Hour":"22:20:00","Hour HH":"22","Minutes MM":"20"},{"":"15191","Date":"2017-01-02","Sex":"M","UCR":"041A","Age":"32","Time":"22:25","Shooting Location":"4400 W Ogden Ave, Chicago, IL 60623","Geocode Override":"(41.84788513183594, -87.73474884033203)","Link":"http://www.chicagotribune.com/news/local/breaking/ct-chicago-shootings-violence-20170102-story.html","lat":"41.84788513183594","long":" -87.73474884033203","isFatal":"0","Hour":"22:25:00","Hour HH":"22","Minutes MM":"25"},{"":"15194","Date":"2017-01-02","Sex":"M","UCR":"","Age":"38","Time":"09:15","Shooting Location":"2500 N Lowell Ave, Chicago, IL 60639","Geocode Override":"(41.926335990428925, -87.7354645729065)","Link":"http://www.chicagotribune.com/news/local/breaking/ct-man-fatally-shot-by-off-duty-officer-marking-second-police-shooting-in-two-days-20170102-story.html","lat":"41.926335990428925","long":" -87.7354645729065","isFatal":"0","Hour":"09:15:00","Hour HH":"9","Minutes MM":"15"},{"":"15192","Date":"2017-01-03","Sex":"M","UCR":"041A","Age":"15","Time":"00:23","Shooting Location":"1700 N Lorel Ave, Chicago, IL 60639","Geocode Override":"(41.91141128540039, -87.75975036621094)","Link":"http://www.chicagotribune.com/news/local/breaking/ct-chicago-shootings-violence-20170102-story.html","lat":"41.91141128540039","long":" -87.75975036621094","isFatal":"0","Hour":"00:23:00","Hour HH":"0","Minutes MM":"23"},{"":"15200","Date":"2017-01-03","Sex":"M","UCR":"110","Age":"25","Time":"23:13","Shooting Location":"3200 W Lexington St, Chicago, IL 60624","Geocode Override":"(41.87191464006901, -87.70604409277439)","Link":"http://www.chicagotribune.com/news/local/breaking/ct-three-shot-and-seriously-injured-in-east-garfield-park-20170103-story.html","lat":"41.87191464006901","long":" -87.70604409277439","isFatal":"1","Hour":"23:13:00","Hour HH":"23","Minutes MM":"13"},{"":"15201","Date":"2017-01-03","Sex":"M","UCR":"041A","Age":"19","Time":"23:06","Shooting Location":"7500 S St Lawrence Ave, Chicago, IL 60619","Geocode Override":"(41.75836198031902, -87.61029727756977)","Link":"http://www.chicagotribune.com/news/local/breaking/ct-three-shot-and-seriously-injured-in-east-garfield-park-20170103-story.html","lat":"41.75836198031902","long":" -87.61029727756977","isFatal":"0","Hour":"23:06:00","Hour HH":"23","Minutes MM":"6"},{"":"15202","Date":"2017-01-03","Sex":"F","UCR":"041A","Age":"65","Time":"12:00","Shooting Location":"3400 W Fulton Blvd, Chicago, IL 60624","Geocode Override":"(41.88669204711914, -87.71134185791016)","Link":"http://www.chicagotribune.com/news/local/breaking/ct-three-shot-and-seriously-injured-in-east-garfield-park-20170103-story.html","lat":"41.88669204711914","long":" -87.71134185791016","isFatal":"0","Hour":"12:00:00","Hour HH":"12","Minutes MM":"0"},{"":"15203","Date":"2017-01-03","Sex":"M","UCR":"041A","Age":"23","Time":"17:30","Shooting Location":"6700 S Perry Ave, Chicago, IL 60621","Geocode Override":"(41.772592440247536, -87.62841828167439)","Link":"http://www.chicagotribune.com/news/local/breaking/ct-three-shot-and-seriously-injured-in-east-garfield-park-20170103-story.html","lat":"41.772592440247536","long":" -87.62841828167439","isFatal":"0","Hour":"17:30:00","Hour HH":"17","Minutes MM":"30"},{"":"15204","Date":"2017-01-03","Sex":"M","UCR":"041A","Age":"23","Time":"16:26","Shooting Location":"2700 W Roosevelt Rd, Chicago, IL 60608","Geocode Override":"(41.866851806640625, -87.69385528564453)","Link":"http://www.chicagotribune.com/news/local/breaking/ct-three-shot-and-seriously-injured-in-east-garfield-park-20170103-story.html","lat":"41.866851806640625","long":" -87.69385528564453","isFatal":"0","Hour":"16:26:00","Hour HH":"16","Minutes MM":"26"},{"":"15205","Date":"2017-01-03","Sex":"M","UCR":"041A","Age":"21","Time":"16:51","Shooting Location":"3400 W Polk St, Chicago, IL 60624","Geocode Override":"(41.86993408203125, -87.71934509277344)","Link":"http://www.chicagotribune.com/news/local/breaking/ct-three-shot-and-seriously-injured-in-east-garfield-park-20170103-story.html","lat":"41.86993408203125","long":" -87.71934509277344","isFatal":"0","Hour":"16:51:00","Hour HH":"16","Minutes MM":"51"},{"":"15206","Date":"2017-01-03","Sex":"M","UCR":"031A","Age":"34","Time":"16:45","Shooting Location":"5800 W Chicago Ave, Chicago, IL 60651","Geocode Override":"(41.89505386352539, -87.77043914794922)","Link":"http://www.chicagotribune.com/news/local/breaking/ct-three-shot-and-seriously-injured-in-east-garfield-park-20170103-story.html","lat":"41.89505386352539","long":" -87.77043914794922","isFatal":"0","Hour":"16:45:00","Hour HH":"16","Minutes MM":"45"},{"":"15207","Date":"2017-01-03","Sex":"M","UCR":"031A","Age":"35","Time":"16:45","Shooting Location":"5800 W Chicago Ave, Chicago, IL 60651","Geocode Override":"(41.89505386352539, -87.77043914794922)","Link":"http://www.chicagotribune.com/news/local/breaking/ct-three-shot-and-seriously-injured-in-east-garfield-park-20170103-story.html","lat":"41.89505386352539","long":" -87.77043914794922","isFatal":"0","Hour":"16:45:00","Hour HH":"16","Minutes MM":"45"},{"":"15208","Date":"2017-01-03","Sex":"M","UCR":"041A","Age":"32","Time":"14:38","Shooting Location":"7900 S King Dr, Chicago, IL 60619","Geocode Override":"(41.750963777303696, -87.61500522494316)","Link":"http://www.chicagotribune.com/news/local/breaking/ct-three-shot-and-seriously-injured-in-east-garfield-park-20170103-story.html","lat":"41.750963777303696","long":" -87.61500522494316","isFatal":"0","Hour":"14:38:00","Hour HH":"14","Minutes MM":"38"},{"":"15209","Date":"2017-01-03","Sex":"M","UCR":"041A","Age":"32","Time":"12:50","Shooting Location":"6900 S Lafayette Ave, Chicago, IL 60621","Geocode Override":"(41.768283, -87.627098)","Link":"http://www.chicagotribune.com/news/local/breaking/ct-three-shot-and-seriously-injured-in-east-garfield-park-20170103-story.html","lat":"41.768283","long":" -87.627098","isFatal":"0","Hour":"12:50:00","Hour HH":"12","Minutes MM":"50"},{"":"15210","Date":"2017-01-03","Sex":"M","UCR":"110","Age":"23","Time":"23:13","Shooting Location":"3213 W Lexington St, Chicago, IL 60624","Geocode Override":"(41.871824115514755, -87.70663350820541)","Link":"http://www.chicagotribune.com/news/local/breaking/ct-three-shot-and-seriously-injured-in-east-garfield-park-20170103-story.html","lat":"41.871824115514755","long":" -87.70663350820541","isFatal":"1","Hour":"23:13:00","Hour HH":"23","Minutes MM":"13"},{"":"15211","Date":"2017-01-03","Sex":"M","UCR":"110","Age":"16","Time":"12:00","Shooting Location":"3418 W Fulton Blvd, Chicago, IL 60624","Geocode Override":"(41.88668441772461, -87.71202087402344)","Link":"http://www.chicagotribune.com/news/local/breaking/ct-three-shot-and-seriously-injured-in-east-garfield-park-20170103-story.html","lat":"41.88668441772461","long":" -87.71202087402344","isFatal":"1","Hour":"12:00:00","Hour HH":"12","Minutes MM":"0"},{"":"15215","Date":"2017-01-03","Sex":"M","UCR":"041A","Age":"16","Time":"21:05","Shooting Location":"6100 S Cottage Grove Ave, Chicago, IL 60637","Geocode Override":"(41.78390197455883, -87.60605603456497)","Link":"http://www.chicagotribune.com/news/local/breaking/ct-three-shot-and-seriously-injured-in-east-garfield-park-20170103-story.html","lat":"41.78390197455883","long":" -87.60605603456497","isFatal":"0","Hour":"21:05:00","Hour HH":"21","Minutes MM":"5"},{"":"15216","Date":"2017-01-03","Sex":"M","UCR":"110","Age":"17","Time":"12:00","Shooting Location":"3400 W Fulton Blvd, Chicago, IL 60624","Geocode Override":"(41.88669204711914, -87.71134185791016)","Link":"http://www.chicagotribune.com/news/local/breaking/ct-three-shot-and-seriously-injured-in-east-garfield-park-20170103-story.html","lat":"41.88669204711914","long":" -87.71134185791016","isFatal":"1","Hour":"12:00:00","Hour HH":"12","Minutes MM":"0"},{"":"15213","Date":"2017-01-04","Sex":"M","UCR":"041A","Age":"18","Time":"20:15","Shooting Location":"4300 S Rockwell St, Chicago, IL 60632","Geocode Override":"(41.815471574664116, -87.68957667052746)","Link":"http://www.chicagotribune.com/news/local/breaking/ct-chicago-shootings-violence-20170104-story.html","lat":"41.815471574664116","long":" -87.68957667052746","isFatal":"0","Hour":"20:15:00","Hour HH":"20","Minutes MM":"15"},{"":"15214","Date":"2017-01-04","Sex":"M","UCR":"041A","Age":"21","Time":"13:25","Shooting Location":"1100 N Massasoit Ave, Chicago, IL 60651","Geocode Override":"(41.90039825439453, -87.76958465576172)","Link":"http://www.chicagotribune.com/news/local/breaking/ct-chicago-shootings-violence-20170104-story.html","lat":"41.90039825439453","long":" -87.76958465576172","isFatal":"0","Hour":"13:25:00","Hour HH":"13","Minutes MM":"25"},{"":"15217","Date":"2017-01-05","Sex":"M","UCR":"041A","Age":"31","Time":"19:10","Shooting Location":"2000 S Indiana Ave, Chicago, IL 60616","Geocode Override":"(41.85536205768585, -87.62231692671776)","Link":"http://www.chicagotribune.com/news/local/breaking/ct-chicago-shootings-violence-20170105-story.html","lat":"41.85536205768585","long":" -87.62231692671776","isFatal":"0","Hour":"19:10:00","Hour HH":"19","Minutes MM":"10"},{"":"15218","Date":"2017-01-05","Sex":"F","UCR":"041A","Age":"20","Time":"22:23","Shooting Location":"6800 S Lowe Ave, Chicago, IL 60621","Geocode Override":"(41.770565032958984, -87.64053344726562)","Link":"http://www.chicagotribune.com/news/local/breaking/ct-chicago-shootings-violence-20170105-story.html","lat":"41.770565032958984","long":" -87.64053344726562","isFatal":"0","Hour":"22:23:00","Hour HH":"22","Minutes MM":"23"},{"":"15220","Date":"2017-01-05","Sex":"M","UCR":"110","Age":"28","Time":"23:13","Shooting Location":"800 E 46th St, Chicago, IL 60653","Geocode Override":"(41.811404675245285, -87.60647512972355)","Link":"http://www.chicagotribune.com/news/local/breaking/ct-chicago-shootings-violence-20170105-story.html","lat":"41.811404675245285","long":" -87.60647512972355","isFatal":"1","Hour":"23:13:00","Hour HH":"23","Minutes MM":"13"},{"":"15219","Date":"2017-01-06","Sex":"M","UCR":"041A","Age":"28","Time":"00:15","Shooting Location":"5200 W Jackson Blvd, Chicago, IL 60644","Geocode Override":"(41.87712097167969, -87.7541732788086)","Link":"http://www.chicagotribune.com/news/local/breaking/ct-chicago-shootings-violence-20170105-story.html","lat":"41.87712097167969","long":" -87.7541732788086","isFatal":"0","Hour":"00:15:00","Hour HH":"0","Minutes MM":"15"},{"":"15221","Date":"2017-01-06","Sex":"M","UCR":"","Age":"26","Time":"13:40","Shooting Location":"3800 W Adams St, Chicago, IL 60624","Geocode Override":"(41.87807500362396, -87.72089414298534)","Link":"http://www.chicagotribune.com/news/local/breaking/ct-chicago-shootings-violence-20170105-story.html","lat":"41.87807500362396","long":" -87.72089414298534","isFatal":"0","Hour":"13:40:00","Hour HH":"13","Minutes MM":"40"},{"":"15222","Date":"2017-01-06","Sex":"M","UCR":"","Age":"20","Time":"13:40","Shooting Location":"3800 W Adams St, Chicago, IL 60624","Geocode Override":"(41.87807500362396, -87.72089414298534)","Link":"","lat":"41.87807500362396","long":" -87.72089414298534","isFatal":"0","Hour":"13:40:00","Hour HH":"13","Minutes MM":"40"},{"":"15223","Date":"2017-01-06","Sex":"M","UCR":"","Age":"19","Time":"13:40","Shooting Location":"3800 W Adams St, Chicago, IL 60624","Geocode Override":"(41.87807500362396, -87.72089414298534)","Link":"http://www.chicagotribune.com/news/local/breaking/ct-chicago-violence-shootings-20170106-story.html","lat":"41.87807500362396","long":" -87.72089414298534","isFatal":"0","Hour":"13:40:00","Hour HH":"13","Minutes MM":"40"},{"":"15224","Date":"2017-01-06","Sex":"M","UCR":"041A","Age":"23","Time":"23:10","Shooting Location":"3900 W Grenshaw St, Chicago, IL 60624","Geocode Override":"(41.86737060546875, -87.72295379638672)","Link":"http://www.chicagotribune.com/news/local/breaking/ct-chicago-violence-shootings-20170106-story.html","lat":"41.86737060546875","long":" -87.72295379638672","isFatal":"0","Hour":"23:10:00","Hour HH":"23","Minutes MM":"10"},{"":"15225","Date":"2017-01-06","Sex":"M","UCR":"","Age":"23","Time":"17:45","Shooting Location":"4800 S Wolcott Ave, Chicago, IL 60609","Geocode Override":"(41.80658721923828, -87.67256164550781)","Link":"http://www.chicagotribune.com/news/local/breaking/ct-chicago-violence-shootings-20170106-story.html","lat":"41.80658721923828","long":" -87.67256164550781","isFatal":"0","Hour":"17:45:00","Hour HH":"17","Minutes MM":"45"},{"":"15226","Date":"2017-01-07","Sex":"M","UCR":"110","Age":"","Time":"09:50","Shooting Location":"1300 W Hastings St, Chicago, IL 60608","Geocode Override":"(41.8643394112587, -87.65893913805485)","Link":"http://www.chicagotribune.com/news/local/breaking/ct-chicago-shootings-violence-20170107-story.html","lat":"41.8643394112587","long":" -87.65893913805485","isFatal":"1","Hour":"09:50:00","Hour HH":"9","Minutes MM":"50"},{"":"15227","Date":"2017-01-07","Sex":"M","UCR":"041A","Age":"25","Time":"14:45","Shooting Location":"10300 S Western Ave, Chicago, IL 60643","Geocode Override":"(41.706241965293884, -87.68167689442635)","Link":"http://www.chicagotribune.com/news/local/breaking/ct-chicago-shootings-violence-20170107-story.html","lat":"41.706241965293884","long":" -87.68167689442635","isFatal":"0","Hour":"14:45:00","Hour HH":"14","Minutes MM":"45"},{"":"15228","Date":"2017-01-07","Sex":"M","UCR":"041A","Age":"17","Time":"21:25","Shooting Location":"5300 S Maryland Ave, Chicago, IL 60615","Geocode Override":"(41.79848179221153, -87.60518699884415)","Link":"http://www.chicagotribune.com/news/local/breaking/ct-chicago-shootings-violence-20170107-story.html","lat":"41.79848179221153","long":" -87.60518699884415","isFatal":"0","Hour":"21:25:00","Hour HH":"21","Minutes MM":"25"},{"":"15229","Date":"2017-01-07","Sex":"M","UCR":"041A","Age":"24","Time":"23:00","Shooting Location":"800 S California Ave, Chicago, IL 60612","Geocode Override":"(41.87090301513672, -87.69625854492188)","Link":"http://www.chicagotribune.com/news/local/breaking/ct-chicago-shootings-violence-20170107-story.html","lat":"41.87090301513672","long":" -87.69625854492188","isFatal":"0","Hour":"23:00:00","Hour HH":"23","Minutes MM":"0"},{"":"15230","Date":"2017-01-08","Sex":"M","UCR":"041A","Age":"33","Time":"00:01","Shooting Location":"4900 W Roscoe St, Chicago, IL 60641","Geocode Override":"(41.94270324707031, -87.74964141845703)","Link":"http://www.chicagotribune.com/news/local/breaking/ct-chicago-shootings-violence-20170107-story.html","lat":"41.94270324707031","long":" -87.74964141845703","isFatal":"0","Hour":"00:01:00","Hour HH":"0","Minutes MM":"1"},{"":"15231","Date":"2017-01-08","Sex":"M","UCR":"041A","Age":"21","Time":"21:39","Shooting Location":"5400 S Laflin St, Chicago, IL 60609","Geocode Override":"(41.795753479003906, -87.66255950927734)","Link":"http://www.chicagotribune.com/news/local/breaking/ct-chicago-shootings-violence-20170108-story.html","lat":"41.795753479003906","long":" -87.66255950927734","isFatal":"0","Hour":"21:39:00","Hour HH":"21","Minutes MM":"39"},{"":"15262","Date":"2017-01-08","Sex":"M","UCR":"","Age":"21","Time":"01:40","Shooting Location":"5600 N Western Ave, Chicago, IL 60659","Geocode Override":"(41.98330610990524, -87.68949419260025)","Link":"http://www.chicagotribune.com/news/local/breaking/ct-chicago-shootings-violence-20170107-story.html","lat":"41.98330610990524","long":" -87.68949419260025","isFatal":"0","Hour":"01:40:00","Hour HH":"1","Minutes MM":"40"},{"":"10037","Date":"2017-01-09","Sex":"M","UCR":"110","Age":"21","Time":"09:47","Shooting Location":"4520 W Lexington St, Chicago, IL 60624","Geocode Override":"(41.871541142463684, -87.73864634335041)","Link":"http://www.chicagotribune.com/news/local/breaking/ct-shooting-violence-20170109-story.html","lat":"41.871541142463684","long":" -87.73864634335041","isFatal":"1","Hour":"09:47:00","Hour HH":"9","Minutes MM":"47"},{"":"15234","Date":"2017-01-09","Sex":"","UCR":"041A","Age":"24","Time":"11:14","Shooting Location":"4500 S Vincennes Ave, Chicago, IL 60653","Geocode Override":"(41.8129114061594, -87.61397458612919)","Link":"http://www.chicagotribune.com/news/local/breaking/ct-shooting-violence-20170109-story.html","lat":"41.8129114061594","long":" -87.61397458612919","isFatal":"0","Hour":"11:14:00","Hour HH":"11","Minutes MM":"14"},{"":"15235","Date":"2017-01-09","Sex":"M","UCR":"041A","Age":"23","Time":"09:47","Shooting Location":"4520 W Lexington St, Chicago, IL 60624","Geocode Override":"(41.871541142463684, -87.73864634335041)","Link":"http://www.chicagotribune.com/news/local/breaking/ct-shooting-violence-20170109-story.html","lat":"41.871541142463684","long":" -87.73864634335041","isFatal":"0","Hour":"09:47:00","Hour HH":"9","Minutes MM":"47"},{"":"15236","Date":"2017-01-09","Sex":"M","UCR":"041A","Age":"16","Time":"15:10","Shooting Location":"300 N Laramie Ave, Chicago, IL 60644","Geocode Override":"(41.885758861899376, -87.75533571839333)","Link":"http://www.chicagotribune.com/news/local/breaking/ct-shooting-violence-20170109-story.html","lat":"41.885758861899376","long":" -87.75533571839333","isFatal":"0","Hour":"15:10:00","Hour HH":"15","Minutes MM":"10"},{"":"15237","Date":"2017-01-09","Sex":"M","UCR":"110","Age":"26","Time":"19:44","Shooting Location":"1600 N Keystone Ave, Chicago, IL 60639","Geocode Override":"(41.910006031394005, -87.72762380540371)","Link":"http://www.chicagotribune.com/news/local/breaking/ct-shooting-violence-20170109-story.html","lat":"41.910006031394005","long":" -87.72762380540371","isFatal":"1","Hour":"19:44:00","Hour HH":"19","Minutes MM":"44"},{"":"15238","Date":"2017-01-09","Sex":"F","UCR":"041A","Age":"27","Time":"23:51","Shooting Location":"200 W 111th Pl, Chicago, IL 60628","Geocode Override":"(41.69166348874569, -87.62807428836823)","Link":"http://www.chicagotribune.com/news/local/breaking/ct-shooting-violence-20170109-story.html","lat":"41.69166348874569","long":" -87.62807428836823","isFatal":"0","Hour":"23:51:00","Hour HH":"23","Minutes MM":"51"},{"":"15239","Date":"2017-01-09","Sex":"M","UCR":"041A","Age":"37","Time":"23:40","Shooting Location":"700 N Long Ave, Chicago, IL 60644","Geocode Override":"(41.89307525753975, -87.76060625910759)","Link":"http://www.chicagotribune.com/news/local/breaking/ct-shooting-violence-20170109-story.html","lat":"41.89307525753975","long":" -87.76060625910759","isFatal":"0","Hour":"23:40:00","Hour HH":"23","Minutes MM":"40"},{"":"15240","Date":"2017-01-10","Sex":"M","UCR":"041A","Age":"32","Time":"01:52","Shooting Location":"7700 S Indiana Ave, Chicago, IL 60619","Geocode Override":"(41.75454330444336, -87.62032318115234)","Link":"http://www.chicagotribune.com/news/local/breaking/ct-shooting-violence-20170109-story.html","lat":"41.75454330444336","long":" -87.62032318115234","isFatal":"0","Hour":"01:52:00","Hour HH":"1","Minutes MM":"52"},{"":"15241","Date":"2017-01-10","Sex":"M","UCR":"041A","Age":"27","Time":"13:53","Shooting Location":"4400 W Van Buren St, Chicago, IL 60624","Geocode Override":"(41.875182911753654, -87.73545518517494)","Link":"http://www.chicagotribune.com/news/local/breaking/ct-chicago-shootings-violence-20170110-story.html","lat":"41.875182911753654","long":" -87.73545518517494","isFatal":"0","Hour":"13:53:00","Hour HH":"13","Minutes MM":"53"},{"":"15242","Date":"2017-01-10","Sex":"M","UCR":"041A","Age":"16","Time":"14:32","Shooting Location":"11400 S Vincennes Ave, Chicago, IL 60643","Geocode Override":"(41.68669891357422, -87.6670150756836)","Link":"http://www.chicagotribune.com/news/local/breaking/ct-chicago-shootings-violence-20170110-story.html","lat":"41.68669891357422","long":" -87.6670150756836","isFatal":"0","Hour":"14:32:00","Hour HH":"14","Minutes MM":"32"},{"":"15243","Date":"2017-01-10","Sex":"M","UCR":"041A","Age":"22","Time":"21:10","Shooting Location":"1500 S Kolin Ave, Chicago, IL 60623","Geocode Override":"(41.86043167114258, -87.73391723632812)","Link":"http://www.chicagotribune.com/news/local/breaking/ct-chicago-shootings-violence-20170110-story.html","lat":"41.86043167114258","long":" -87.73391723632812","isFatal":"0","Hour":"21:10:00","Hour HH":"21","Minutes MM":"10"},{"":"15426","Date":"2017-01-10","Sex":"M","UCR":"1477","Age":"22","Time":"22:30","Shooting Location":"1800 S Drake Ave, Chicago, IL 60623","Geocode Override":"(41.85708236694336, -87.71428680419922)","Link":"http://www.chicagotribune.com/news/local/breaking/ct-chicago-shootings-violence-20170110-story.html","lat":"41.85708236694336","long":" -87.71428680419922","isFatal":"0","Hour":"22:30:00","Hour HH":"22","Minutes MM":"30"},{"":"15244","Date":"2017-01-11","Sex":"M","UCR":"041A","Age":"20","Time":"00:50","Shooting Location":"10100 S Parnell Ave, Chicago, IL 60628","Geocode Override":"(41.71048355102539, -87.63720703125)","Link":"http://www.chicagotribune.com/news/local/breaking/ct-chicago-shootings-violence-20170110-story.html","lat":"41.71048355102539","long":" -87.63720703125","isFatal":"0","Hour":"00:50:00","Hour HH":"0","Minutes MM":"50"},{"":"15245","Date":"2017-01-11","Sex":"M","UCR":"041A","Age":"31","Time":"02:34","Shooting Location":"2805 W 55th St, Chicago, IL 60632","Geocode Override":"(41.793426513671875, -87.69408416748047)","Link":"http://www.chicagotribune.com/news/local/breaking/ct-chicago-shootings-violence-20170110-story.html","lat":"41.793426513671875","long":" -87.69408416748047","isFatal":"0","Hour":"02:34:00","Hour HH":"2","Minutes MM":"34"},{"":"15246","Date":"2017-01-11","Sex":"M","UCR":"041A","Age":"26","Time":"09:30","Shooting Location":"1300 N Lockwood Ave, Chicago, IL 60651","Geocode Override":"(41.904050186276436, -87.75834515690804)","Link":"http://www.chicagotribune.com/news/local/breaking/ct-chicago-shootings-violence-20170111-story.html","lat":"41.904050186276436","long":" -87.75834515690804","isFatal":"0","Hour":"09:30:00","Hour HH":"9","Minutes MM":"30"},{"":"15247","Date":"2017-01-11","Sex":"M","UCR":"041A","Age":"29","Time":"09:30","Shooting Location":"1300 N Lockwood Ave, Chicago, IL 60651","Geocode Override":"(41.904050186276436, -87.75834515690804)","Link":"http://www.chicagotribune.com/news/local/breaking/ct-chicago-shootings-violence-20170111-story.html","lat":"41.904050186276436","long":" -87.75834515690804","isFatal":"0","Hour":"09:30:00","Hour HH":"9","Minutes MM":"30"},{"":"15248","Date":"2017-01-11","Sex":"M","UCR":"041A","Age":"28","Time":"14:00","Shooting Location":"5200 S Paulina St, Chicago, IL 60609","Geocode Override":"(41.79934310913086, -87.66751861572266)","Link":"http://www.chicagotribune.com/news/local/breaking/ct-chicago-shootings-violence-20170111-story.html","lat":"41.79934310913086","long":" -87.66751861572266","isFatal":"0","Hour":"14:00:00","Hour HH":"14","Minutes MM":"0"},{"":"15249","Date":"2017-01-11","Sex":"M","UCR":"041A","Age":"21","Time":"16:15","Shooting Location":"5700 S Racine Ave, Chicago, IL 60636","Geocode Override":"(41.790372133255005, -87.65482731163502)","Link":"http://www.chicagotribune.com/news/local/breaking/ct-chicago-shootings-violence-20170111-story.html","lat":"41.790372133255005","long":" -87.65482731163502","isFatal":"0","Hour":"16:15:00","Hour HH":"16","Minutes MM":"15"},{"":"15250","Date":"2017-01-11","Sex":"M","UCR":"041A","Age":"16","Time":"16:15","Shooting Location":"5700 S Racine Ave, Chicago, IL 60636","Geocode Override":"(41.790372133255005, -87.65482731163502)","Link":"http://www.chicagotribune.com/news/local/breaking/ct-chicago-shootings-violence-20170111-story.html","lat":"41.790372133255005","long":" -87.65482731163502","isFatal":"0","Hour":"16:15:00","Hour HH":"16","Minutes MM":"15"},{"":"15251","Date":"2017-01-11","Sex":"M","UCR":"041A","Age":"21","Time":"23:24","Shooting Location":"2100 W Chicago Ave, Chicago, IL 60622","Geocode Override":"(41.89628601074219, -87.6798324584961)","Link":"http://www.chicagotribune.com/news/local/breaking/ct-chicago-shootings-violence-20170111-story.html","lat":"41.89628601074219","long":" -87.6798324584961","isFatal":"0","Hour":"23:24:00","Hour HH":"23","Minutes MM":"24"},{"":"15252","Date":"2017-01-11","Sex":"M","UCR":"041A","Age":"20","Time":"23:35","Shooting Location":"2800 W 59th St, Chicago, IL 60629","Geocode Override":"(41.78666305541992, -87.69378662109375)","Link":"http://www.chicagotribune.com/news/local/breaking/ct-chicago-shootings-violence-20170111-story.html","lat":"41.78666305541992","long":" -87.69378662109375","isFatal":"0","Hour":"23:35:00","Hour HH":"23","Minutes MM":"35"},{"":"15253","Date":"2017-01-11","Sex":"M","UCR":"041A","Age":"13","Time":"15:15","Shooting Location":"3500 W 16th St, Chicago, IL 60623","Geocode Override":"(41.85905143618584, -87.71296553313732)","Link":"http://www.chicagotribune.com/news/local/breaking/ct-chicago-shootings-violence-20170111-story.html","lat":"41.85905143618584","long":" -87.71296553313732","isFatal":"0","Hour":"15:15:00","Hour HH":"15","Minutes MM":"15"},{"":"15254","Date":"2017-01-11","Sex":"M","UCR":"110","Age":"18","Time":"18:10","Shooting Location":"4200 S Talman Ave, Chicago, IL 60632","Geocode Override":"(41.81729507446289, -87.691162109375)","Link":"http://www.chicagotribune.com/news/local/breaking/ct-chicago-shootings-violence-20170111-story.html","lat":"41.81729507446289","long":" -87.691162109375","isFatal":"1","Hour":"18:10:00","Hour HH":"18","Minutes MM":"10"},{"":"15255","Date":"2017-01-11","Sex":"M","UCR":"041A","Age":"22","Time":"18:10","Shooting Location":"4200 S Talman Ave, Chicago, IL 60632","Geocode Override":"(41.81729507446289, -87.691162109375)","Link":"http://www.chicagotribune.com/news/local/breaking/ct-chicago-shootings-violence-20170111-story.html","lat":"41.81729507446289","long":" -87.691162109375","isFatal":"0","Hour":"18:10:00","Hour HH":"18","Minutes MM":"10"},{"":"15256","Date":"2017-01-11","Sex":"M","UCR":"041A","Age":"18","Time":"18:10","Shooting Location":"4200 S Talman Ave, Chicago, IL 60632","Geocode Override":"(41.81729507446289, -87.691162109375)","Link":"http://www.chicagotribune.com/news/local/breaking/ct-chicago-shootings-violence-20170111-story.html","lat":"41.81729507446289","long":" -87.691162109375","isFatal":"0","Hour":"18:10:00","Hour HH":"18","Minutes MM":"10"},{"":"15257","Date":"2017-01-11","Sex":"M","UCR":"041A","Age":"25","Time":"18:10","Shooting Location":"4200 S Talman Ave, Chicago, IL 60632","Geocode Override":"(41.81729507446289, -87.691162109375)","Link":"http://www.chicagotribune.com/news/local/breaking/ct-chicago-shootings-violence-20170111-story.html","lat":"41.81729507446289","long":" -87.691162109375","isFatal":"0","Hour":"18:10:00","Hour HH":"18","Minutes MM":"10"},{"":"15258","Date":"2017-01-11","Sex":"M","UCR":"041A","Age":"21","Time":"18:10","Shooting Location":"4200 S Talman Ave, Chicago, IL 60632","Geocode Override":"(41.81729507446289, -87.691162109375)","Link":"http://www.chicagotribune.com/news/local/breaking/ct-chicago-shootings-violence-20170111-story.html","lat":"41.81729507446289","long":" -87.691162109375","isFatal":"0","Hour":"18:10:00","Hour HH":"18","Minutes MM":"10"},{"":"15259","Date":"2017-01-12","Sex":"M","UCR":"041A","Age":"36","Time":"21:23","Shooting Location":"2700 S Homan Ave, Chicago, IL 60623","Geocode Override":"(41.84249496459961, -87.710205078125)","Link":"http://www.chicagotribune.com/news/local/breaking/ct-chicago-shootings-violence-20170112-story.html","lat":"41.84249496459961","long":" -87.710205078125","isFatal":"0","Hour":"21:23:00","Hour HH":"21","Minutes MM":"23"},{"":"15260","Date":"2017-01-12","Sex":"M","UCR":"041A","Age":"23","Time":"20:25","Shooting Location":"9400 S Wentworth Ave, Chicago, IL 60620","Geocode Override":"(41.72335244715214, -87.62874014675617)","Link":"http://www.chicagotribune.com/news/local/breaking/ct-chicago-shootings-violence-20170112-story.html","lat":"41.72335244715214","long":" -87.62874014675617","isFatal":"0","Hour":"20:25:00","Hour HH":"20","Minutes MM":"25"},{"":"15261","Date":"2017-01-12","Sex":"F","UCR":"041A","Age":"27","Time":"20:00","Shooting Location":"8400 S Hoyne Ave, Chicago, IL 60620","Geocode Override":"(41.74095916748047, -87.67569732666016)","Link":"http://www.chicagotribune.com/news/local/breaking/ct-chicago-shootings-violence-20170112-story.html","lat":"41.74095916748047","long":" -87.67569732666016","isFatal":"0","Hour":"20:00:00","Hour HH":"20","Minutes MM":"0"},{"":"15308","Date":"2017-01-12","Sex":"M","UCR":"110","Age":"36","Time":"21:23","Shooting Location":"2700 S Homan Ave, Chicago, IL 60623","Geocode Override":"(41.84249496459961, -87.710205078125)","Link":"http://www.chicagotribune.com/news/local/breaking/ct-chicago-shootings-violence-20170112-story.html","lat":"41.84249496459961","long":" -87.710205078125","isFatal":"1","Hour":"21:23:00","Hour HH":"21","Minutes MM":"23"},{"":"15263","Date":"2017-01-13","Sex":"M","UCR":"041A","Age":"23","Time":"11:25","Shooting Location":"1900 S Homan Ave, Chicago, IL 60623","Geocode Override":"(41.85523986816406, -87.71052551269531)","Link":"http://www.chicagotribune.com/news/local/breaking/ct-man-seriously-wounded-in-west-side-shooting-20170113-story.html","lat":"41.85523986816406","long":" -87.71052551269531","isFatal":"0","Hour":"11:25:00","Hour HH":"11","Minutes MM":"25"},{"":"15264","Date":"2017-01-13","Sex":"M","UCR":"041A","Age":"19","Time":"17:14","Shooting Location":"4000 W Madison St, Chicago, IL 60624","Geocode Override":"(41.88113021850586, -87.72589111328125)","Link":"","lat":"41.88113021850586","long":" -87.72589111328125","isFatal":"0","Hour":"17:14:00","Hour HH":"17","Minutes MM":"14"},{"":"15265","Date":"2017-01-13","Sex":"M","UCR":"110","Age":"20","Time":"21:50","Shooting Location":"7200 S Washtenaw Ave, Chicago, IL 60629","Geocode Override":"(41.76261901855469, -87.69087982177734)","Link":"http://www.chicagotribune.com/news/local/breaking/ct-man-seriously-wounded-in-west-side-shooting-20170113-story.html","lat":"41.76261901855469","long":" -87.69087982177734","isFatal":"1","Hour":"21:50:00","Hour HH":"21","Minutes MM":"50"},{"":"15266","Date":"2017-01-13","Sex":"M","UCR":"041A","Age":"21","Time":"23:40","Shooting Location":"2300 S Kedzie Ave, Chicago, IL 60623","Geocode Override":"(41.849815368652344, -87.7055435180664)","Link":"http://www.chicagotribune.com/news/local/breaking/ct-man-seriously-wounded-in-west-side-shooting-20170113-story.html","lat":"41.849815368652344","long":" -87.7055435180664","isFatal":"0","Hour":"23:40:00","Hour HH":"23","Minutes MM":"40"},{"":"15267","Date":"2017-01-13","Sex":"M","UCR":"041A","Age":"28","Time":"23:30","Shooting Location":"10500 S Sangamon St, Chicago, IL 60643","Geocode Override":"(41.70308303833008, -87.6467056274414)","Link":"http://www.chicagotribune.com/news/local/breaking/ct-man-seriously-wounded-in-west-side-shooting-20170113-story.html","lat":"41.70308303833008","long":" -87.6467056274414","isFatal":"0","Hour":"23:30:00","Hour HH":"23","Minutes MM":"30"},{"":"15307","Date":"2017-01-13","Sex":"M","UCR":"110","Age":"21","Time":"16:00","Shooting Location":"600 N Central Ave, Chicago, IL 60644","Geocode Override":"(41.89127731323242, -87.76561737060547)","Link":"http://www.chicagotribune.com/news/local/breaking/ct-man-seriously-wounded-in-west-side-shooting-20170113-story.html","lat":"41.89127731323242","long":" -87.76561737060547","isFatal":"1","Hour":"16:00:00","Hour HH":"16","Minutes MM":"0"},{"":"15268","Date":"2017-01-14","Sex":"M","UCR":"041A","Age":"17","Time":"00:30","Shooting Location":"4000 W Ogden Ave, Chicago, IL 60623","Geocode Override":"(41.85106046497822, -87.72494159638882)","Link":"http://www.chicagotribune.com/news/local/breaking/ct-man-seriously-wounded-in-west-side-shooting-20170113-story.html","lat":"41.85106046497822","long":" -87.72494159638882","isFatal":"0","Hour":"00:30:00","Hour HH":"0","Minutes MM":"30"},{"":"15269","Date":"2017-01-14","Sex":"M","UCR":"110","Age":"25","Time":"03:30","Shooting Location":"6026 S Carpenter St, Chicago, IL 60621","Geocode Override":"(41.78424835205078, -87.65132904052734)","Link":"http://www.chicagotribune.com/news/local/breaking/ct-man-seriously-wounded-in-west-side-shooting-20170113-story.html","lat":"41.78424835205078","long":" -87.65132904052734","isFatal":"1","Hour":"03:30:00","Hour HH":"3","Minutes MM":"30"},{"":"15270","Date":"2017-01-14","Sex":"F","UCR":"041A","Age":"26","Time":"03:30","Shooting Location":"6026 S Carpenter St, Chicago, IL 60621","Geocode Override":"(41.78424835205078, -87.65132904052734)","Link":"http://www.chicagotribune.com/news/local/breaking/ct-man-seriously-wounded-in-west-side-shooting-20170113-story.html","lat":"41.78424835205078","long":" -87.65132904052734","isFatal":"0","Hour":"03:30:00","Hour HH":"3","Minutes MM":"30"},{"":"15271","Date":"2017-01-14","Sex":"M","UCR":"110","Age":"27","Time":"08:05","Shooting Location":"1100 S Francisco Ave, Chicago, IL 60612","Geocode Override":"(41.868175, -87.698745)","Link":"http://www.chicagotribune.com/news/local/breaking/ct-chicago-shootings-violence-20170114-story.html","lat":"41.868175","long":" -87.698745","isFatal":"1","Hour":"08:05:00","Hour HH":"8","Minutes MM":"5"},{"":"15272","Date":"2017-01-14","Sex":"M","UCR":"041A","Age":"39","Time":"08:05","Shooting Location":"1100 S Francisco Ave, Chicago, IL 60612","Geocode Override":"(41.868175, -87.698745)","Link":"http://www.chicagotribune.com/news/local/breaking/ct-chicago-shootings-violence-20170114-story.html","lat":"41.868175","long":" -87.698745","isFatal":"0","Hour":"08:05:00","Hour HH":"8","Minutes MM":"5"},{"":"15273","Date":"2017-01-14","Sex":"M","UCR":"041A","Age":"18","Time":"09:45","Shooting Location":"1500 S Hamlin Ave, Chicago, IL 60623","Geocode Override":"(41.860618591308594, -87.72047424316406)","Link":"http://www.chicagotribune.com/news/local/breaking/ct-chicago-shootings-violence-20170114-story.html","lat":"41.860618591308594","long":" -87.72047424316406","isFatal":"0","Hour":"09:45:00","Hour HH":"9","Minutes MM":"45"},{"":"15274","Date":"2017-01-14","Sex":"M","UCR":"041A","Age":"16","Time":"11:44","Shooting Location":"1900 W 70th St, Chicago, IL 60636","Geocode Override":"(41.76669493317604, -87.67131350934505)","Link":"http://www.chicagotribune.com/news/local/breaking/ct-chicago-shootings-violence-20170114-story.html","lat":"41.76669493317604","long":" -87.67131350934505","isFatal":"0","Hour":"11:44:00","Hour HH":"11","Minutes MM":"44"},{"":"15275","Date":"2017-01-14","Sex":"M","UCR":"041A","Age":"25","Time":"13:30","Shooting Location":"100 S Kilpatrick Ave, Chicago, IL 60644","Geocode Override":"(41.87913179397583, -87.74282589554787)","Link":"http://www.chicagotribune.com/news/local/breaking/ct-chicago-shootings-violence-20170114-story.html","lat":"41.87913179397583","long":" -87.74282589554787","isFatal":"0","Hour":"13:30:00","Hour HH":"13","Minutes MM":"30"},{"":"15276","Date":"2017-01-14","Sex":"M","UCR":"041A","Age":"23","Time":"17:00","Shooting Location":"200 N Kostner Ave, Chicago, IL 60624","Geocode Override":"(41.8833763897419, -87.73560404777527)","Link":"http://www.chicagotribune.com/news/local/breaking/ct-chicago-shootings-violence-20170114-story.html","lat":"41.8833763897419","long":" -87.73560404777527","isFatal":"0","Hour":"17:00:00","Hour HH":"17","Minutes MM":"0"},{"":"15277","Date":"2017-01-14","Sex":"M","UCR":"041A","Age":"18","Time":"17:04","Shooting Location":"400 S Central Ave, Chicago, IL 60644","Geocode Override":"(41.874588802456856, -87.76472546160221)","Link":"http://www.chicagotribune.com/news/local/breaking/ct-chicago-shootings-violence-20170114-story.html","lat":"41.874588802456856","long":" -87.76472546160221","isFatal":"0","Hour":"17:04:00","Hour HH":"17","Minutes MM":"4"},{"":"15278","Date":"2017-01-14","Sex":"M","UCR":"110","Age":"26","Time":"18:55","Shooting Location":"5500 W Rice St, Chicago, IL 60651","Geocode Override":"(41.89582251012325, -87.76374578475952)","Link":"http://www.chicagotribune.com/news/local/breaking/ct-chicago-shootings-violence-20170114-story.html","lat":"41.89582251012325","long":" -87.76374578475952","isFatal":"1","Hour":"18:55:00","Hour HH":"18","Minutes MM":"55"},{"":"15279","Date":"2017-01-14","Sex":"M","UCR":"041A","Age":"22","Time":"20:48","Shooting Location":"4900 W Hubbard St, Chicago, IL 60644","Geocode Override":"(41.888919830322266, -87.74825286865234)","Link":"http://www.chicagotribune.com/news/local/breaking/ct-chicago-shootings-violence-20170114-story.html","lat":"41.888919830322266","long":" -87.74825286865234","isFatal":"0","Hour":"20:48:00","Hour HH":"20","Minutes MM":"48"},{"":"15280","Date":"2017-01-15","Sex":"M","UCR":"041A","Age":"25","Time":"03:50","Shooting Location":"1400 N Rockwell St, Chicago, IL 60622","Geocode Override":"(41.9067458063364, -87.69209392368793)","Link":"http://www.chicagotribune.com/news/local/breaking/ct-chicago-shootings-violence-20170114-story.html","lat":"41.9067458063364","long":" -87.69209392368793","isFatal":"0","Hour":"03:50:00","Hour HH":"3","Minutes MM":"50"},{"":"15281","Date":"2017-01-15","Sex":"M","UCR":"041A","Age":"25","Time":"05:05","Shooting Location":"7300 S Union Ave, Chicago, IL 60621","Geocode Override":"(41.761451, -87.642227)","Link":"http://www.chicagotribune.com/news/local/breaking/ct-chicago-shootings-violence-20170114-story.html","lat":"41.761451","long":" -87.642227","isFatal":"0","Hour":"05:05:00","Hour HH":"5","Minutes MM":"5"},{"":"15282","Date":"2017-01-15","Sex":"M","UCR":"110","Age":"30s","Time":"05:30","Shooting Location":"2600 W Van Buren St, Chicago, IL 60612","Geocode Override":"(41.8760921806097, -87.69181497395039)","Link":"http://www.chicagotribune.com/news/local/breaking/ct-chicago-shootings-violence-20170114-story.html","lat":"41.8760921806097","long":" -87.69181497395039","isFatal":"1","Hour":"05:30:00","Hour HH":"5","Minutes MM":"30"},{"":"15283","Date":"2017-01-15","Sex":"M","UCR":"","Age":"34","Time":"00:25","Shooting Location":"3348 W Monroe St, Chicago, IL 60624","Geocode Override":"(41.879882, -87.710342)","Link":"http://www.chicagotribune.com/news/local/breaking/ct-violence-officer-involved-shooting-20170115-story.html","lat":"41.879882","long":" -87.710342","isFatal":"0","Hour":"00:25:00","Hour HH":"0","Minutes MM":"25"},{"":"15284","Date":"2017-01-15","Sex":"F","UCR":"041A","Age":"51","Time":"00:25","Shooting Location":"3400 W Madison St, Chicago, IL 60624","Geocode Override":"(41.88384246826172, -87.71672058105469)","Link":"http://www.chicagotribune.com/news/local/breaking/ct-violence-officer-involved-shooting-20170115-story.html","lat":"41.88384246826172","long":" -87.71672058105469","isFatal":"0","Hour":"00:25:00","Hour HH":"0","Minutes MM":"25"},{"":"15285","Date":"2017-01-15","Sex":"F","UCR":"041A","Age":"21","Time":"00:25","Shooting Location":"3400 W Madison St, Chicago, IL 60624","Geocode Override":"(41.88384246826172, -87.71672058105469)","Link":"http://www.chicagotribune.com/news/local/breaking/ct-violence-officer-involved-shooting-20170115-story.html","lat":"41.88384246826172","long":" -87.71672058105469","isFatal":"0","Hour":"00:25:00","Hour HH":"0","Minutes MM":"25"},{"":"15286","Date":"2017-01-15","Sex":"M","UCR":"041A","Age":"30","Time":"00:25","Shooting Location":"3400 W Madison St, Chicago, IL 60624","Geocode Override":"(41.88384246826172, -87.71672058105469)","Link":"http://www.chicagotribune.com/news/local/breaking/ct-violence-officer-involved-shooting-20170115-story.html","lat":"41.88384246826172","long":" -87.71672058105469","isFatal":"0","Hour":"00:25:00","Hour HH":"0","Minutes MM":"25"},{"":"15287","Date":"2017-01-15","Sex":"M","UCR":"","Age":"","Time":"19:30","Shooting Location":"4500 N Kedzie Ave, Chicago, IL 60625","Geocode Override":"(41.963135227561, -87.70836621522903)","Link":"http://www.chicagotribune.com/news/local/breaking/ct-off-duty-officer-fires-shots-albany-park-20170115-story.html","lat":"41.963135227561","long":" -87.70836621522903","isFatal":"0","Hour":"19:30:00","Hour HH":"19","Minutes MM":"30"},{"":"15288","Date":"2017-01-15","Sex":"M","UCR":"041A","Age":"31","Time":"14:26","Shooting Location":"4600 S Marshfield Ave, Chicago, IL 60609","Geocode Override":"(41.810279846191406, -87.66658020019531)","Link":"http://www.chicagotribune.com/news/local/breaking/ct-chicago-shootings-violence-20170115-story.html","lat":"41.810279846191406","long":" -87.66658020019531","isFatal":"0","Hour":"14:26:00","Hour HH":"14","Minutes MM":"26"},{"":"15289","Date":"2017-01-15","Sex":"M","UCR":"041A","Age":"60","Time":"14:26","Shooting Location":"4600 S Marshfield Ave, Chicago, IL 60609","Geocode Override":"(41.810279846191406, -87.66658020019531)","Link":"http://www.chicagotribune.com/news/local/breaking/ct-chicago-shootings-violence-20170115-story.html","lat":"41.810279846191406","long":" -87.66658020019531","isFatal":"0","Hour":"14:26:00","Hour HH":"14","Minutes MM":"26"},{"":"15290","Date":"2017-01-15","Sex":"M","UCR":"041A","Age":"16","Time":"14:43","Shooting Location":"6300 S Cottage Grove Ave, Chicago, IL 60637","Geocode Override":"(41.78017807006836, -87.60633087158203)","Link":"http://www.chicagotribune.com/news/local/breaking/ct-chicago-shootings-violence-20170115-story.html","lat":"41.78017807006836","long":" -87.60633087158203","isFatal":"0","Hour":"14:43:00","Hour HH":"14","Minutes MM":"43"},{"":"15291","Date":"2017-01-15","Sex":"F","UCR":"041A","Age":"36","Time":"20:01","Shooting Location":"600 W 95th St, Chicago, IL 60628","Geocode Override":"(41.721631810069084, -87.6385147869587)","Link":"http://www.chicagotribune.com/news/local/breaking/ct-chicago-shootings-violence-20170115-story.html","lat":"41.721631810069084","long":" -87.6385147869587","isFatal":"0","Hour":"20:01:00","Hour HH":"20","Minutes MM":"1"},{"":"15292","Date":"2017-01-15","Sex":"M","UCR":"041A","Age":"33","Time":"20:11","Shooting Location":"600 N Leclaire Ave, Chicago, IL 60644","Geocode Override":"(41.89146041870117, -87.75337982177734)","Link":"http://www.chicagotribune.com/news/local/breaking/ct-chicago-shootings-violence-20170115-story.html","lat":"41.89146041870117","long":" -87.75337982177734","isFatal":"0","Hour":"20:11:00","Hour HH":"20","Minutes MM":"11"},{"":"15306","Date":"2017-01-15","Sex":"M","UCR":"110","Age":"34","Time":"01:13","Shooting Location":"4700 W Polk St, Chicago, IL 60644","Geocode Override":"(41.870532631874084, -87.74264484643936)","Link":"http://www.chicagotribune.com/news/local/breaking/ct-chicago-shootings-violence-20170114-story.html","lat":"41.870532631874084","long":" -87.74264484643936","isFatal":"1","Hour":"01:13:00","Hour HH":"1","Minutes MM":"13"},{"":"15293","Date":"2017-01-16","Sex":"M","UCR":"041A","Age":"28","Time":"00:23","Shooting Location":"6900 S Normal Blvd, Chicago, IL 60621","Geocode Override":"(41.76942443847656, -87.63694763183594)","Link":"http://www.chicagotribune.com/news/local/breaking/ct-chicago-shootings-violence-20170115-story.html","lat":"41.76942443847656","long":" -87.63694763183594","isFatal":"0","Hour":"00:23:00","Hour HH":"0","Minutes MM":"23"},{"":"15294","Date":"2017-01-16","Sex":"M","UCR":"110","Age":"36","Time":"01:10","Shooting Location":"2200 W Chicago Ave, Chicago, IL 60622","Geocode Override":"(41.896095275878906, -87.68212127685547)","Link":"http://www.chicagotribune.com/news/local/breaking/ct-chicago-shootings-violence-20170115-story.html","lat":"41.896095275878906","long":" -87.68212127685547","isFatal":"1","Hour":"01:10:00","Hour HH":"1","Minutes MM":"10"},{"":"15295","Date":"2017-01-16","Sex":"M","UCR":"041A","Age":"28","Time":"01:45","Shooting Location":"7500 S Wentworth Ave, Chicago, IL 60620","Geocode Override":"(41.75801086425781, -87.63009643554688)","Link":"http://www.chicagotribune.com/news/local/breaking/ct-chicago-shootings-violence-20170115-story.html","lat":"41.75801086425781","long":" -87.63009643554688","isFatal":"0","Hour":"01:45:00","Hour HH":"1","Minutes MM":"45"},{"":"15296","Date":"2017-01-16","Sex":"M","UCR":"041A","Age":"17","Time":"08:20","Shooting Location":"4300 W 28th St, Chicago, IL 60623","Geocode Override":"(41.8405120074749, -87.73191533982754)","Link":"http://www.chicagotribune.com/news/local/breaking/ct-chicago-shootings-violence-20170116-story.html","lat":"41.8405120074749","long":" -87.73191533982754","isFatal":"0","Hour":"08:20:00","Hour HH":"8","Minutes MM":"20"},{"":"15300","Date":"2017-01-16","Sex":"M","UCR":"041A","Age":"28","Time":"09:45","Shooting Location":"800 E 79th St, Chicago, IL 60619","Geocode Override":"(41.751339957118034, -87.60504886507988)","Link":"http://www.chicagotribune.com/news/local/breaking/ct-chicago-shootings-violence-20170116-story.html","lat":"41.751339957118034","long":" -87.60504886507988","isFatal":"0","Hour":"09:45:00","Hour HH":"9","Minutes MM":"45"},{"":"15301","Date":"2017-01-16","Sex":"M","UCR":"041A","Age":"20","Time":"14:57","Shooting Location":"600 N Ridgeway Ave, Chicago, IL 60624","Geocode Override":"(41.89189910888672, -87.72020721435547)","Link":"http://www.chicagotribune.com/news/local/breaking/ct-chicago-shootings-violence-20170116-story.html","lat":"41.89189910888672","long":" -87.72020721435547","isFatal":"0","Hour":"14:57:00","Hour HH":"14","Minutes MM":"57"},{"":"15302","Date":"2017-01-16","Sex":"F","UCR":"041A","Age":"14","Time":"17:46","Shooting Location":"9100 S Commercial Ave, Chicago, IL 60617","Geocode Override":"(41.72991245985031, -87.55128733813763)","Link":"http://www.chicagotribune.com/news/local/breaking/ct-chicago-shootings-violence-20170116-story.html","lat":"41.72991245985031","long":" -87.55128733813763","isFatal":"0","Hour":"17:46:00","Hour HH":"17","Minutes MM":"46"},{"":"15303","Date":"2017-01-16","Sex":"M","UCR":"041A","Age":"20","Time":"17:46","Shooting Location":"9100 S Commercial Ave, Chicago, IL 60617","Geocode Override":"(41.72991245985031, -87.55128733813763)","Link":"http://www.chicagotribune.com/news/local/breaking/ct-chicago-shootings-violence-20170116-story.html","lat":"41.72991245985031","long":" -87.55128733813763","isFatal":"0","Hour":"17:46:00","Hour HH":"17","Minutes MM":"46"},{"":"15304","Date":"2017-01-16","Sex":"M","UCR":"041A","Age":"33","Time":"21:27","Shooting Location":"4200 W Ogden Ave, Chicago, IL 60623","Geocode Override":"(41.849361285567284, -87.72973202168941)","Link":"http://www.chicagotribune.com/news/local/breaking/ct-chicago-shootings-violence-20170116-story.html","lat":"41.849361285567284","long":" -87.72973202168941","isFatal":"0","Hour":"21:27:00","Hour HH":"21","Minutes MM":"27"},{"":"15305","Date":"2017-01-16","Sex":"M","UCR":"110","Age":"24","Time":"11:36","Shooting Location":"4820 W Hubbard St, Chicago, IL 60644","Geocode Override":"(41.88893127441406, -87.74645233154297)","Link":"http://www.chicagotribune.com/news/local/breaking/ct-chicago-shootings-violence-20170116-story.html","lat":"41.88893127441406","long":" -87.74645233154297","isFatal":"1","Hour":"11:36:00","Hour HH":"11","Minutes MM":"36"},{"":"15309","Date":"2017-01-17","Sex":"M","UCR":"041A","Age":"23","Time":"09:15","Shooting Location":"700 S California Ave, Chicago, IL 60612","Geocode Override":"(41.8726921081543, -87.69632720947266)","Link":"http://www.chicagotribune.com/news/local/breaking/ct-shooting-violence-20170117-story.html","lat":"41.8726921081543","long":" -87.69632720947266","isFatal":"0","Hour":"09:15:00","Hour HH":"9","Minutes MM":"15"},{"":"15310","Date":"2017-01-17","Sex":"M","UCR":"041A","Age":"20","Time":"13:20","Shooting Location":"100 W 111th St, Chicago, IL 60628","Geocode Override":"(41.69282150268555, -87.62603759765625)","Link":"http://www.chicagotribune.com/news/local/breaking/ct-shooting-violence-20170117-story.html","lat":"41.69282150268555","long":" -87.62603759765625","isFatal":"0","Hour":"13:20:00","Hour HH":"13","Minutes MM":"20"},{"":"15311","Date":"2017-01-17","Sex":"M","UCR":"031A","Age":"23","Time":"14:25","Shooting Location":"5000 W Madison St, Chicago, IL 60644","Geocode Override":"(41.880828857421875, -87.75068664550781)","Link":"http://www.chicagotribune.com/news/local/breaking/ct-shooting-violence-20170117-story.html","lat":"41.880828857421875","long":" -87.75068664550781","isFatal":"0","Hour":"14:25:00","Hour HH":"14","Minutes MM":"25"},{"":"15312","Date":"2017-01-17","Sex":"M","UCR":"041A","Age":"46","Time":"14:48","Shooting Location":"300 E 120th St, Chicago, IL 60628","Geocode Override":"(41.67633466422558, -87.61634632945061)","Link":"http://www.chicagotribune.com/news/local/breaking/ct-shooting-violence-20170117-story.html","lat":"41.67633466422558","long":" -87.61634632945061","isFatal":"0","Hour":"14:48:00","Hour HH":"14","Minutes MM":"48"},{"":"15313","Date":"2017-01-17","Sex":"M","UCR":"041A","Age":"17","Time":"15:57","Shooting Location":"4600 S Ellis Ave, Chicago, IL 60653","Geocode Override":"(41.81117248535156, -87.60231018066406)","Link":"http://www.chicagotribune.com/news/local/breaking/ct-shooting-violence-20170117-story.html","lat":"41.81117248535156","long":" -87.60231018066406","isFatal":"0","Hour":"15:57:00","Hour HH":"15","Minutes MM":"57"},{"":"15314","Date":"2017-01-17","Sex":"M","UCR":"041A","Age":"36","Time":"18:10","Shooting Location":"900 W Wilson Ave, Chicago, IL 60640","Geocode Override":"(41.96576690673828, -87.65239715576172)","Link":"http://www.chicagotribune.com/news/local/breaking/ct-shooting-violence-20170117-story.html","lat":"41.96576690673828","long":" -87.65239715576172","isFatal":"0","Hour":"18:10:00","Hour HH":"18","Minutes MM":"10"},{"":"15315","Date":"2017-01-17","Sex":"M","UCR":"041A","Age":"24","Time":"19:30","Shooting Location":"100 S Pulaski Rd, Chicago, IL 60624","Geocode Override":"(41.87969505786896, -87.72568054497242)","Link":"http://www.chicagotribune.com/news/local/breaking/ct-shooting-violence-20170117-story.html","lat":"41.87969505786896","long":" -87.72568054497242","isFatal":"0","Hour":"19:30:00","Hour HH":"19","Minutes MM":"30"},{"":"15316","Date":"2017-01-17","Sex":"F","UCR":"5089","Age":"5","Time":"20:05","Shooting Location":"3739 W Ferdinand St, Chicago, IL 60624","Geocode Override":"(41.8896484375, -87.72014617919922)","Link":"http://www.chicagotribune.com/news/local/breaking/ct-shooting-violence-20170117-story.html","lat":"41.8896484375","long":" -87.72014617919922","isFatal":"0","Hour":"20:05:00","Hour HH":"20","Minutes MM":"5"},{"":"15317","Date":"2017-01-17","Sex":"M","UCR":"041A","Age":"21","Time":"20:34","Shooting Location":"53 W 79th St, Chicago, IL 60620","Geocode Override":"(41.75088196992874, -87.6266010850668)","Link":"http://www.chicagotribune.com/news/local/breaking/ct-shooting-violence-20170117-story.html","lat":"41.75088196992874","long":" -87.6266010850668","isFatal":"0","Hour":"20:34:00","Hour HH":"20","Minutes MM":"34"},{"":"15318","Date":"2017-01-17","Sex":"F","UCR":"041A","Age":"17","Time":"20:34","Shooting Location":"53 W 79th St, Chicago, IL 60620","Geocode Override":"(41.75088196992874, -87.6266010850668)","Link":"http://www.chicagotribune.com/news/local/breaking/ct-shooting-violence-20170117-story.html","lat":"41.75088196992874","long":" -87.6266010850668","isFatal":"0","Hour":"20:34:00","Hour HH":"20","Minutes MM":"34"},{"":"15319","Date":"2017-01-17","Sex":"M","UCR":"041A","Age":"29","Time":"22:05","Shooting Location":"1300 S Troy St, Chicago, IL 60623","Geocode Override":"(41.86445999145508, -87.70474243164062)","Link":"http://www.chicagotribune.com/news/local/breaking/ct-shooting-violence-20170117-story.html","lat":"41.86445999145508","long":" -87.70474243164062","isFatal":"0","Hour":"22:05:00","Hour HH":"22","Minutes MM":"5"},{"":"15320","Date":"2017-01-17","Sex":"M","UCR":"110","Age":"26","Time":"23:27","Shooting Location":"118 N Central Park Ave, Chicago, IL 60624","Geocode Override":"(41.881972923874855, -87.71561421453953)","Link":"http://www.chicagotribune.com/news/local/breaking/ct-shooting-violence-20170117-story.html","lat":"41.881972923874855","long":" -87.71561421453953","isFatal":"1","Hour":"23:27:00","Hour HH":"23","Minutes MM":"27"},{"":"15326","Date":"2017-01-17","Sex":"M","UCR":"110","Age":"25","Time":"21:03","Shooting Location":"5100 S Blackstone Ave, Chicago, IL 60615","Geocode Override":"(41.8023119866848, -87.59053744375706)","Link":"http://www.chicagotribune.com/news/local/breaking/ct-shooting-violence-20170117-story.html","lat":"41.8023119866848","long":" -87.59053744375706","isFatal":"1","Hour":"21:03:00","Hour HH":"21","Minutes MM":"3"},{"":"15475","Date":"2017-01-17","Sex":"M","UCR":"110","Age":"28","Time":"20:34","Shooting Location":"53 W 79th St, Chicago, IL 60620","Geocode Override":"(41.75088196992874, -87.6266010850668)","Link":"http://www.chicagotribune.com/news/local/breaking/ct-shooting-violence-20170117-story.html","lat":"41.75088196992874","long":" -87.6266010850668","isFatal":"1","Hour":"20:34:00","Hour HH":"20","Minutes MM":"34"},{"":"15321","Date":"2017-01-18","Sex":"M","UCR":"041A","Age":"19","Time":"01:59","Shooting Location":"6800 S Ridgeland Ave, Chicago, IL 60649","Geocode Override":"(41.77137756347656, -87.58293914794922)","Link":"http://www.chicagotribune.com/news/local/breaking/ct-shooting-violence-20170117-story.html","lat":"41.77137756347656","long":" -87.58293914794922","isFatal":"0","Hour":"01:59:00","Hour HH":"1","Minutes MM":"59"},{"":"15322","Date":"2017-01-18","Sex":"M","UCR":"110","Age":"34","Time":"09:20","Shooting Location":"4700 W Flournoy St, Chicago, IL 60644","Geocode Override":"(41.87251281738281, -87.74275970458984)","Link":"http://www.chicagotribune.com/news/local/breaking/ct-chicago-shootings-violence-20170118-story.html","lat":"41.87251281738281","long":" -87.74275970458984","isFatal":"1","Hour":"09:20:00","Hour HH":"9","Minutes MM":"20"},{"":"15323","Date":"2017-01-18","Sex":"M","UCR":"041A","Age":"30","Time":"18:40","Shooting Location":"7900 S Laflin St, Chicago, IL 60620","Geocode Override":"(41.75027176737785, -87.6610567420721)","Link":"http://www.chicagotribune.com/news/local/breaking/ct-chicago-shootings-violence-20170118-story.html","lat":"41.75027176737785","long":" -87.6610567420721","isFatal":"0","Hour":"18:40:00","Hour HH":"18","Minutes MM":"40"},{"":"15324","Date":"2017-01-18","Sex":"M","UCR":"041A","Age":"24","Time":"12:15","Shooting Location":"1500 S Komensky Ave, Chicago, IL 60623","Geocode Override":"(41.86054611206055, -87.7265853881836)","Link":"http://www.chicagotribune.com/news/local/breaking/ct-chicago-shootings-violence-20170118-story.html","lat":"41.86054611206055","long":" -87.7265853881836","isFatal":"0","Hour":"12:15:00","Hour HH":"12","Minutes MM":"15"},{"":"15325","Date":"2017-01-18","Sex":"M","UCR":"041A","Age":"26","Time":"11:17","Shooting Location":"8300 S Cottage Grove Ave, Chicago, IL 60619","Geocode Override":"(41.7435417175293, -87.6054916381836)","Link":"http://www.chicagotribune.com/news/local/breaking/ct-chicago-shootings-violence-20170118-story.html","lat":"41.7435417175293","long":" -87.6054916381836","isFatal":"0","Hour":"11:17:00","Hour HH":"11","Minutes MM":"17"},{"":"15350","Date":"2017-01-18","Sex":"M","UCR":"110","Age":"16","Time":"16:45","Shooting Location":"6908 S Green St, Chicago, IL 60621","Geocode Override":"(41.76854632794857, -87.64577351510525)","Link":"http://www.chicagotribune.com/news/local/breaking/ct-chicago-shootings-violence-20170118-story.html","lat":"41.76854632794857","long":" -87.64577351510525","isFatal":"1","Hour":"16:45:00","Hour HH":"16","Minutes MM":"45"},{"":"15327","Date":"2017-01-19","Sex":"M","UCR":"110","Age":"15","Time":"19:55","Shooting Location":"7001 S Stewart Ave, Chicago, IL 60621","Geocode Override":"None","Link":"http://www.chicagotribune.com/news/local/breaking/ct-man-seriously-wounded-in-shooting-in-englewood-20170119-story.html","lat":"","long":"","isFatal":"1","Hour":"19:55:00","Hour HH":"19","Minutes MM":"55"},{"":"15328","Date":"2017-01-19","Sex":"M","UCR":"110","Age":"28","Time":"22:00","Shooting Location":"8045 S. Bishop St.","Geocode Override":"(41.74728775024414, -87.65937042236328)","Link":"http://www.chicagotribune.com/news/local/breaking/ct-man-seriously-wounded-in-shooting-in-englewood-20170119-story.html","lat":"41.74728775024414","long":" -87.65937042236328","isFatal":"1","Hour":"22:00:00","Hour HH":"22","Minutes MM":"0"},{"":"15329","Date":"2017-01-19","Sex":"M","UCR":"","Age":"37","Time":"09:10","Shooting Location":"7152 S Carpenter St, Chicago, IL 60621","Geocode Override":"(41.76354217529297, -87.65078735351562)","Link":"http://www.chicagotribune.com/news/local/breaking/ct-man-seriously-wounded-in-shooting-in-englewood-20170119-story.html","lat":"41.76354217529297","long":" -87.65078735351562","isFatal":"0","Hour":"09:10:00","Hour HH":"9","Minutes MM":"10"},{"":"15330","Date":"2017-01-19","Sex":"M","UCR":"41","Age":"50","Time":"04:15","Shooting Location":"5000 W Ohio St, Chicago, IL 60644","Geocode Override":"(41.8915901184082, -87.7507553100586)","Link":"http://www.chicagotribune.com/news/local/breaking/ct-chicago-shootings-violence-20170118-story.html","lat":"41.8915901184082","long":" -87.7507553100586","isFatal":"0","Hour":"04:15:00","Hour HH":"4","Minutes MM":"15"},{"":"15333","Date":"2017-01-19","Sex":"M","UCR":"041A","Age":"49","Time":"19:50","Shooting Location":"700 S Lawndale Ave, Chicago, IL 60624","Geocode Override":"(41.87249198555946, -87.71809592843056)","Link":"http://www.chicagotribune.com/news/local/breaking/ct-man-seriously-wounded-in-shooting-in-englewood-20170119-story.html","lat":"41.87249198555946","long":" -87.71809592843056","isFatal":"0","Hour":"19:50:00","Hour HH":"19","Minutes MM":"50"},{"":"15334","Date":"2017-01-19","Sex":"M","UCR":"041A","Age":"21","Time":"19:00","Shooting Location":"7100 S Woodlawn Ave, Chicago, IL 60619","Geocode Override":"(41.76584243774414, -87.5962142944336)","Link":"http://www.chicagotribune.com/news/local/breaking/ct-man-seriously-wounded-in-shooting-in-englewood-20170119-story.html","lat":"41.76584243774414","long":" -87.5962142944336","isFatal":"0","Hour":"19:00:00","Hour HH":"19","Minutes MM":"0"},{"":"15335","Date":"2017-01-19","Sex":"M","UCR":"041A","Age":"32","Time":"18:25","Shooting Location":"6700 S. Normal Ave.","Geocode Override":"(41.772430419921875, -87.63763427734375)","Link":"http://www.chicagotribune.com/news/local/breaking/ct-man-seriously-wounded-in-shooting-in-englewood-20170119-story.html","lat":"41.772430419921875","long":" -87.63763427734375","isFatal":"0","Hour":"18:25:00","Hour HH":"18","Minutes MM":"25"},{"":"15336","Date":"2017-01-19","Sex":"M","UCR":"041A","Age":"16","Time":"18:05","Shooting Location":"11000 S Ewing Ave, Chicago, IL 60617","Geocode Override":"(41.69533275067806, -87.53532014787197)","Link":"http://www.chicagotribune.com/news/local/breaking/ct-man-seriously-wounded-in-shooting-in-englewood-20170119-story.html","lat":"41.69533275067806","long":" -87.53532014787197","isFatal":"0","Hour":"18:05:00","Hour HH":"18","Minutes MM":"5"},{"":"15337","Date":"2017-01-19","Sex":"M","UCR":"041A","Age":"18","Time":"17:50","Shooting Location":"4800 S Throop St, Chicago, IL 60609","Geocode Override":"(41.80675506591797, -87.6579818725586)","Link":"http://www.chicagotribune.com/news/local/breaking/ct-man-seriously-wounded-in-shooting-in-englewood-20170119-story.html","lat":"41.80675506591797","long":" -87.6579818725586","isFatal":"0","Hour":"17:50:00","Hour HH":"17","Minutes MM":"50"},{"":"15338","Date":"2017-01-19","Sex":"M","UCR":"041A","Age":"20","Time":"12:20","Shooting Location":"7700 S Michigan Ave, Chicago, IL 60619","Geocode Override":"(41.754497, -87.621932)","Link":"http://www.chicagotribune.com/news/local/breaking/ct-man-seriously-wounded-in-shooting-in-englewood-20170119-story.html","lat":"41.754497","long":" -87.621932","isFatal":"0","Hour":"12:20:00","Hour HH":"12","Minutes MM":"20"},{"":"15331","Date":"2017-01-20","Sex":"M","UCR":"041A","Age":"18","Time":"06:30","Shooting Location":"3700 W Chicago Ave, Chicago, IL 60651","Geocode Override":"(41.89571762084961, -87.7189712524414)","Link":"http://www.chicagotribune.com/news/local/breaking/ct-man-seriously-wounded-in-shooting-in-englewood-20170119-story.html","lat":"41.89571762084961","long":" -87.7189712524414","isFatal":"0","Hour":"06:30:00","Hour HH":"6","Minutes MM":"30"},{"":"15332","Date":"2017-01-20","Sex":"M","UCR":"041A","Age":"48","Time":"02:35","Shooting Location":"5200 W Fullerton Ave, Chicago, IL 60639","Geocode Override":"(41.92440414428711, -87.75691986083984)","Link":"http://www.chicagotribune.com/news/local/breaking/ct-man-seriously-wounded-in-shooting-in-englewood-20170119-story.html","lat":"41.92440414428711","long":" -87.75691986083984","isFatal":"0","Hour":"02:35:00","Hour HH":"2","Minutes MM":"35"},{"":"15339","Date":"2017-01-20","Sex":"M","UCR":"041B","Age":"30","Time":"16:16","Shooting Location":"1400 W 49th St, Chicago, IL 60609","Geocode Override":"(41.80507332086563, -87.66020447015762)","Link":"http://www.chicagotribune.com/news/local/breaking/ct-man-seriously-wounded-in-shooting-in-back-of-the-yards-20170120-story.html","lat":"41.80507332086563","long":" -87.66020447015762","isFatal":"0","Hour":"16:16:00","Hour HH":"16","Minutes MM":"16"},{"":"15340","Date":"2017-01-20","Sex":"F","UCR":"041A","Age":"27","Time":"21:15","Shooting Location":"2900 E 91st St, Chicago, IL 60617","Geocode Override":"(41.730342864990234, -87.55376434326172)","Link":"http://www.chicagotribune.com/news/local/breaking/ct-man-seriously-wounded-in-shooting-in-back-of-the-yards-20170120-story.html","lat":"41.730342864990234","long":" -87.55376434326172","isFatal":"0","Hour":"21:15:00","Hour HH":"21","Minutes MM":"15"},{"":"15341","Date":"2017-01-20","Sex":"M","UCR":"041A","Age":"25","Time":"21:05","Shooting Location":"5200 W Congress Pkwy, Chicago, IL 60644","Geocode Override":"(41.873981952667236, -87.75500513613224)","Link":"http://www.chicagotribune.com/news/local/breaking/ct-man-seriously-wounded-in-shooting-in-back-of-the-yards-20170120-story.html","lat":"41.873981952667236","long":" -87.75500513613224","isFatal":"0","Hour":"21:05:00","Hour HH":"21","Minutes MM":"5"},{"":"15342","Date":"2017-01-20","Sex":"M","UCR":"041A","Age":"27","Time":"21:05","Shooting Location":"5200 W Congress Pkwy, Chicago, IL 60644","Geocode Override":"(41.873981952667236, -87.75500513613224)","Link":"http://www.chicagotribune.com/news/local/breaking/ct-man-seriously-wounded-in-shooting-in-back-of-the-yards-20170120-story.html","lat":"41.873981952667236","long":" -87.75500513613224","isFatal":"0","Hour":"21:05:00","Hour HH":"21","Minutes MM":"5"},{"":"15343","Date":"2017-01-20","Sex":"M","UCR":"041A","Age":"24","Time":"23:08","Shooting Location":"8100 S Drexel Ave, Chicago, IL 60619","Geocode Override":"(41.74751177430153, -87.60270595550537)","Link":"http://www.chicagotribune.com/news/local/breaking/ct-man-seriously-wounded-in-shooting-in-back-of-the-yards-20170120-story.html","lat":"41.74751177430153","long":" -87.60270595550537","isFatal":"0","Hour":"23:08:00","Hour HH":"23","Minutes MM":"8"},{"":"15349","Date":"2017-01-20","Sex":"M","UCR":"041A","Age":"22","Time":"21:05","Shooting Location":"5200 W Congress Pkwy, Chicago, IL 60644","Geocode Override":"(41.873981952667236, -87.75500513613224)","Link":"http://www.chicagotribune.com/news/local/breaking/ct-man-seriously-wounded-in-shooting-in-back-of-the-yards-20170120-story.html","lat":"41.873981952667236","long":" -87.75500513613224","isFatal":"0","Hour":"21:05:00","Hour HH":"21","Minutes MM":"5"},{"":"15406","Date":"2017-01-20","Sex":"M","UCR":"150","Age":"20","Time":"06:50","Shooting Location":"12300 S Wallace St, Chicago, IL 60628","Geocode Override":"(41.67045056819916, -87.63691082596779)","Link":"http://www.chicagotribune.com/news/local/breaking/ct-off-duty-robbins-police-officer-fatally-shoots-person-on-far-south-side-20170120-story.html","lat":"41.67045056819916","long":" -87.63691082596779","isFatal":"0","Hour":"06:50:00","Hour HH":"6","Minutes MM":"50"},{"":"15429","Date":"2017-01-20","Sex":"M","UCR":"110","Age":"19","Time":"17:40","Shooting Location":"600 S Sacramento Blvd, Chicago, IL 60612","Geocode Override":"(41.87361180782318, -87.70106591284275)","Link":"http://www.chicagotribune.com/news/local/breaking/ct-man-seriously-wounded-in-shooting-in-back-of-the-yards-20170120-story.html","lat":"41.87361180782318","long":" -87.70106591284275","isFatal":"1","Hour":"17:40:00","Hour HH":"17","Minutes MM":"40"},{"":"16060","Date":"2017-01-20","Sex":"M","UCR":"041A","Age":"29","Time":"19:23","Shooting Location":"1600 N Mayfield Ave, Chicago, IL 60639","Geocode Override":"(41.9094058036949, -87.7727456697508)","Link":"http://www.chicagotribune.com/news/local/breaking/ct-chicago-shootings-violence-20170420-story.html","lat":"41.9094058036949","long":" -87.7727456697508","isFatal":"0","Hour":"19:23:00","Hour HH":"19","Minutes MM":"23"},{"":"15344","Date":"2017-01-21","Sex":"M","UCR":"041A","Age":"28","Time":"2:05","Shooting Location":"5400 W Ohio St, Chicago, IL 60644","Geocode Override":"(41.89118228852749, -87.76065520942211)","Link":"http://www.chicagotribune.com/news/local/breaking/ct-man-seriously-wounded-in-shooting-in-back-of-the-yards-20170120-story.html","lat":"41.89118228852749","long":" -87.76065520942211","isFatal":"0","Hour":"02:05:00","Hour HH":"2","Minutes MM":"5"},{"":"15345","Date":"2017-01-21","Sex":"M","UCR":"110","Age":"20","Time":"3:15","Shooting Location":"3954 W Thomas St, Chicago, IL 60651","Geocode Override":"(41.90089724957943, -87.72550620138645)","Link":"http://www.chicagotribune.com/news/local/breaking/ct-man-seriously-wounded-in-shooting-in-back-of-the-yards-20170120-story.html","lat":"41.90089724957943","long":" -87.72550620138645","isFatal":"1","Hour":"03:15:00","Hour HH":"3","Minutes MM":"15"},{"":"15346","Date":"2017-01-21","Sex":"M","UCR":"041A","Age":"36","Time":"3:15","Shooting Location":"3954 W Thomas St, Chicago, IL 60651","Geocode Override":"(41.90089724957943, -87.72550620138645)","Link":"http://www.chicagotribune.com/news/local/breaking/ct-man-seriously-wounded-in-shooting-in-back-of-the-yards-20170120-story.html","lat":"41.90089724957943","long":" -87.72550620138645","isFatal":"0","Hour":"03:15:00","Hour HH":"3","Minutes MM":"15"},{"":"15347","Date":"2017-01-21","Sex":"M","UCR":"041A","Age":"42","Time":"3:15","Shooting Location":"3954 W Thomas St, Chicago, IL 60651","Geocode Override":"(41.90089724957943, -87.72550620138645)","Link":"http://www.chicagotribune.com/news/local/breaking/ct-man-seriously-wounded-in-shooting-in-back-of-the-yards-20170120-story.html","lat":"41.90089724957943","long":" -87.72550620138645","isFatal":"0","Hour":"03:15:00","Hour HH":"3","Minutes MM":"15"},{"":"15348","Date":"2017-01-21","Sex":"M","UCR":"041A","Age":"26","Time":"3:48","Shooting Location":"7600 S Bishop St, Chicago, IL 60620","Geocode Override":"(41.7557258605957, -87.66080474853516)","Link":"http://www.chicagotribune.com/news/local/breaking/ct-man-seriously-wounded-in-shooting-in-back-of-the-yards-20170120-story.html","lat":"41.7557258605957","long":" -87.66080474853516","isFatal":"0","Hour":"03:48:00","Hour HH":"3","Minutes MM":"48"},{"":"15351","Date":"2017-01-21","Sex":"M","UCR":"041A","Age":"28","Time":"3:15","Shooting Location":"3801 S St Louis Ave, Chicago, IL 60632","Geocode Override":"(41.82416394352913, -87.71171562373638)","Link":"http://www.chicagotribune.com/news/local/breaking/ct-man-seriously-wounded-in-shooting-in-back-of-the-yards-20170120-story.html","lat":"41.82416394352913","long":" -87.71171562373638","isFatal":"0","Hour":"03:15:00","Hour HH":"3","Minutes MM":"15"},{"":"15352","Date":"2017-01-21","Sex":"M","UCR":"041A","Age":"22","Time":"3:15","Shooting Location":"3801 S St Louis Ave, Chicago, IL 60632","Geocode Override":"(41.82416394352913, -87.71171562373638)","Link":"http://www.chicagotribune.com/news/local/breaking/ct-man-seriously-wounded-in-shooting-in-back-of-the-yards-20170120-story.html","lat":"41.82416394352913","long":" -87.71171562373638","isFatal":"0","Hour":"03:15:00","Hour HH":"3","Minutes MM":"15"},{"":"15353","Date":"2017-01-21","Sex":"M","UCR":"041A","Age":"24","Time":"11:35","Shooting Location":"1 W 69th St, Chicago, IL 60621","Geocode Override":"(41.769116297364235, -87.62683980166912)","Link":"http://www.chicagotribune.com/news/local/breaking/ct-chicago-shootings-violence-20170121-story.html","lat":"41.769116297364235","long":" -87.62683980166912","isFatal":"0","Hour":"11:35:00","Hour HH":"11","Minutes MM":"35"},{"":"15354","Date":"2017-01-21","Sex":"M","UCR":"110","Age":"24","Time":"13:42","Shooting Location":"2654 W Monroe St, Chicago, IL 60612","Geocode Override":"(41.880254969000816, -87.692736312747)","Link":"http://www.chicagotribune.com/news/local/breaking/ct-chicago-shootings-violence-20170121-story.html","lat":"41.880254969000816","long":" -87.692736312747","isFatal":"1","Hour":"13:42:00","Hour HH":"13","Minutes MM":"42"},{"":"15355","Date":"2017-01-21","Sex":"M","UCR":"041A","Age":"27","Time":"14:24","Shooting Location":"4400 W Maypole Ave, Chicago, IL 60624","Geocode Override":"(41.88483428955078, -87.73595428466797)","Link":"http://www.chicagotribune.com/news/local/breaking/ct-chicago-shootings-violence-20170121-story.html","lat":"41.88483428955078","long":" -87.73595428466797","isFatal":"0","Hour":"14:24:00","Hour HH":"14","Minutes MM":"24"},{"":"15356","Date":"2017-01-21","Sex":"M","UCR":"041A","Age":"26","Time":"16:08","Shooting Location":"4400 W Fullerton Ave, Chicago, IL 60639","Geocode Override":"(41.92469787597656, -87.73709106445312)","Link":"http://www.chicagotribune.com/news/local/breaking/ct-chicago-shootings-violence-20170121-story.html","lat":"41.92469787597656","long":" -87.73709106445312","isFatal":"0","Hour":"16:08:00","Hour HH":"16","Minutes MM":"8"},{"":"15357","Date":"2017-01-21","Sex":"M","UCR":"041A","Age":"47","Time":"16:44","Shooting Location":"7700 S Racine Ave, Chicago, IL 60620","Geocode Override":"(41.754005432128906, -87.6542739868164)","Link":"http://www.chicagotribune.com/news/local/breaking/ct-chicago-shootings-violence-20170121-story.html","lat":"41.754005432128906","long":" -87.6542739868164","isFatal":"0","Hour":"16:44:00","Hour HH":"16","Minutes MM":"44"},{"":"15358","Date":"2017-01-21","Sex":"M","UCR":"041A","Age":"21","Time":"17:14","Shooting Location":"1300 N Mayfield Ave, Chicago, IL 60651","Geocode Override":"(41.90397644042969, -87.77335357666016)","Link":"http://www.chicagotribune.com/news/local/breaking/ct-chicago-shootings-violence-20170121-story.html","lat":"41.90397644042969","long":" -87.77335357666016","isFatal":"0","Hour":"17:14:00","Hour HH":"17","Minutes MM":"14"},{"":"15359","Date":"2017-01-21","Sex":"M","UCR":"041A","Age":"18","Time":"17:14","Shooting Location":"1300 N Mayfield Ave, Chicago, IL 60651","Geocode Override":"(41.90397644042969, -87.77335357666016)","Link":"http://www.chicagotribune.com/news/local/breaking/ct-chicago-shootings-violence-20170121-story.html","lat":"41.90397644042969","long":" -87.77335357666016","isFatal":"0","Hour":"17:14:00","Hour HH":"17","Minutes MM":"14"},{"":"15360","Date":"2017-01-21","Sex":"M","UCR":"041A","Age":"23","Time":"17:14","Shooting Location":"1300 N Mayfield Ave, Chicago, IL 60651","Geocode Override":"(41.90397644042969, -87.77335357666016)","Link":"http://www.chicagotribune.com/news/local/breaking/ct-chicago-shootings-violence-20170121-story.html","lat":"41.90397644042969","long":" -87.77335357666016","isFatal":"0","Hour":"17:14:00","Hour HH":"17","Minutes MM":"14"},{"":"15361","Date":"2017-01-21","Sex":"F","UCR":"041A","Age":"19","Time":"19:37","Shooting Location":"7900 S Exchange Ave, Chicago, IL 60617","Geocode Override":"(41.751772463321686, -87.55294024944305)","Link":"http://www.chicagotribune.com/news/local/breaking/ct-chicago-shootings-violence-20170121-story.html","lat":"41.751772463321686","long":" -87.55294024944305","isFatal":"0","Hour":"19:37:00","Hour HH":"19","Minutes MM":"37"},{"":"15362","Date":"2017-01-21","Sex":"M","UCR":"041A","Age":"22","Time":"20:08","Shooting Location":"300 S California Ave, Chicago, IL 60612","Geocode Override":"(41.877301186323166, -87.69623190164566)","Link":"http://www.chicagotribune.com/news/local/breaking/ct-chicago-shootings-violence-20170121-story.html","lat":"41.877301186323166","long":" -87.69623190164566","isFatal":"0","Hour":"20:08:00","Hour HH":"20","Minutes MM":"8"},{"":"15363","Date":"2017-01-21","Sex":"M","UCR":"041A","Age":"17","Time":"20:08","Shooting Location":"300 S California Ave, Chicago, IL 60612","Geocode Override":"(41.877301186323166, -87.69623190164566)","Link":"http://www.chicagotribune.com/news/local/breaking/ct-chicago-shootings-violence-20170121-story.html","lat":"41.877301186323166","long":" -87.69623190164566","isFatal":"0","Hour":"20:08:00","Hour HH":"20","Minutes MM":"8"},{"":"15364","Date":"2017-01-21","Sex":"M","UCR":"041A","Age":"18","Time":"21:08","Shooting Location":"7900 S Woodlawn Ave, Chicago, IL 60619","Geocode Override":"(41.75187683105469, -87.59595489501953)","Link":"http://www.chicagotribune.com/news/local/breaking/ct-chicago-shootings-violence-20170121-story.html","lat":"41.75187683105469","long":" -87.59595489501953","isFatal":"0","Hour":"21:08:00","Hour HH":"21","Minutes MM":"8"},{"":"15365","Date":"2017-01-21","Sex":"M","UCR":"041A","Age":"27","Time":"21:39","Shooting Location":"3300 W Monroe St, Chicago, IL 60624","Geocode Override":"(41.8799934387207, -87.70872497558594)","Link":"http://www.chicagotribune.com/news/local/breaking/ct-chicago-shootings-violence-20170121-story.html","lat":"41.8799934387207","long":" -87.70872497558594","isFatal":"0","Hour":"21:39:00","Hour HH":"21","Minutes MM":"39"},{"":"15366","Date":"2017-01-21","Sex":"F","UCR":"041A","Age":"20","Time":"21:08","Shooting Location":"7900 S Woodlawn Ave, Chicago, IL 60619","Geocode Override":"(41.75187683105469, -87.59595489501953)","Link":"http://www.chicagotribune.com/news/local/breaking/ct-chicago-shootings-violence-20170121-story.html","lat":"41.75187683105469","long":" -87.59595489501953","isFatal":"0","Hour":"21:08:00","Hour HH":"21","Minutes MM":"8"},{"":"15367","Date":"2017-01-21","Sex":"M","UCR":"041A","Age":"26","Time":"22:44","Shooting Location":"600 N St Louis Ave, Chicago, IL 60624","Geocode Override":"(41.89196, -87.714118)","Link":"http://www.chicagotribune.com/news/local/breaking/ct-chicago-shootings-violence-20170121-story.html","lat":"41.89196","long":" -87.714118","isFatal":"0","Hour":"22:44:00","Hour HH":"22","Minutes MM":"44"},{"":"15385","Date":"2017-01-21","Sex":"F","UCR":"110","Age":"27","Time":"3:15","Shooting Location":"3818 S St Louis Ave, Chicago, IL 60632","Geocode Override":"(41.82371601462364, -87.71183028817177)","Link":"http://www.chicagotribune.com/news/local/breaking/ct-woman-dies-day-after-being-shot-on-southwest-side-20170122-story.html","lat":"41.82371601462364","long":" -87.71183028817177","isFatal":"1","Hour":"03:15:00","Hour HH":"3","Minutes MM":"15"},{"":"15392","Date":"2017-01-21","Sex":"M","UCR":"110","Age":"20","Time":"16:53","Shooting Location":"33 W 104th Pl, Chicago, IL 60628","Geocode Override":"(41.70415115356445, -87.62480926513672)","Link":"http://www.chicagotribune.com/news/local/breaking/ct-chicago-shootings-violence-20170121-story.html","lat":"41.70415115356445","long":" -87.62480926513672","isFatal":"1","Hour":"16:53:00","Hour HH":"16","Minutes MM":"53"},{"":"15645","Date":"2017-01-21","Sex":"M","UCR":"1477","Age":"23","Time":"23:15","Shooting Location":"2 N Sacramento Blvd, Chicago, IL 60612","Geocode Override":"(41.88116759061813, -87.70126037299633)","Link":"http://www.chicagotribune.com/news/local/breaking/ct-chicago-shootings-violence-20170121-story.html","lat":"41.88116759061813","long":" -87.70126037299633","isFatal":"0","Hour":"23:15:00","Hour HH":"23","Minutes MM":"15"},{"":"15368","Date":"2017-01-22","Sex":"M","UCR":"041A","Age":"29","Time":"00:19","Shooting Location":"6100 N Winchester Ave, Chicago, IL 60660","Geocode Override":"(41.992271423339844, -87.67887115478516)","Link":"http://www.chicagotribune.com/news/local/breaking/ct-chicago-shootings-violence-20170121-story.html","lat":"41.992271423339844","long":" -87.67887115478516","isFatal":"0","Hour":"00:19:00","Hour HH":"0","Minutes MM":"19"},{"":"15369","Date":"2017-01-22","Sex":"M","UCR":"041A","Age":"28","Time":"3:19","Shooting Location":"9600 S Peoria St, Chicago, IL 60643","Geocode Override":"(41.71915817260742, -87.64592742919922)","Link":"http://www.chicagotribune.com/news/local/breaking/ct-chicago-shootings-violence-20170121-story.html","lat":"41.71915817260742","long":" -87.64592742919922","isFatal":"0","Hour":"03:19:00","Hour HH":"3","Minutes MM":"19"},{"":"15370","Date":"2017-01-22","Sex":"M","UCR":"041A","Age":"23","Time":"2:48","Shooting Location":"6501 W Irving Park Rd, Chicago, IL 60634","Geocode Override":"(41.95283085107803, -87.78915233910084)","Link":"http://www.chicagotribune.com/news/local/breaking/ct-chicago-shootings-violence-20170121-story.html","lat":"41.95283085107803","long":" -87.78915233910084","isFatal":"0","Hour":"02:48:00","Hour HH":"2","Minutes MM":"48"},{"":"15371","Date":"2017-01-22","Sex":"M","UCR":"041A","Age":"15","Time":"4:23","Shooting Location":"700 N Hamlin Ave, Chicago, IL 60624","Geocode Override":"(41.89370423555374, -87.72118180990219)","Link":"http://www.chicagotribune.com/news/local/breaking/ct-chicago-shootings-violence-20170121-story.html","lat":"41.89370423555374","long":" -87.72118180990219","isFatal":"0","Hour":"04:23:00","Hour HH":"4","Minutes MM":"23"},{"":"15372","Date":"2017-01-22","Sex":"M","UCR":"041A","Age":"17","Time":"4:23","Shooting Location":"700 N Hamlin Ave, Chicago, IL 60624","Geocode Override":"(41.89370423555374, -87.72118180990219)","Link":"http://www.chicagotribune.com/news/local/breaking/ct-chicago-shootings-violence-20170121-story.html","lat":"41.89370423555374","long":" -87.72118180990219","isFatal":"0","Hour":"04:23:00","Hour HH":"4","Minutes MM":"23"},{"":"15373","Date":"2017-01-22","Sex":"M","UCR":"041A","Age":"27","Time":"3:40","Shooting Location":"500 S Central Ave, Chicago, IL 60644","Geocode Override":"(41.873672157526016, -87.76469059288502)","Link":"http://www.chicagotribune.com/news/local/breaking/ct-chicago-shootings-violence-20170121-story.html","lat":"41.873672157526016","long":" -87.76469059288502","isFatal":"0","Hour":"03:40:00","Hour HH":"3","Minutes MM":"40"},{"":"15374","Date":"2017-01-22","Sex":"M","UCR":"041A","Age":"22","Time":"6:31","Shooting Location":"3400 S Calumet Ave, Chicago, IL 60616","Geocode Override":"(41.8327751159668, -87.61849975585938)","Link":"http://www.chicagotribune.com/news/local/breaking/-chicago-shootings-violence-0122-20170122-story.html","lat":"41.8327751159668","long":" -87.61849975585938","isFatal":"0","Hour":"06:31:00","Hour HH":"6","Minutes MM":"31"},{"":"15375","Date":"2017-01-22","Sex":"M","UCR":"041A","Age":"24","Time":"6:31","Shooting Location":"3400 S Calumet Ave, Chicago, IL 60616","Geocode Override":"(41.8327751159668, -87.61849975585938)","Link":"http://www.chicagotribune.com/news/local/breaking/-chicago-shootings-violence-0122-20170122-story.html","lat":"41.8327751159668","long":" -87.61849975585938","isFatal":"0","Hour":"06:31:00","Hour HH":"6","Minutes MM":"31"},{"":"15376","Date":"2017-01-22","Sex":"F","UCR":"041A","Age":"23","Time":"6:31","Shooting Location":"3400 S Calumet Ave, Chicago, IL 60616","Geocode Override":"(41.8327751159668, -87.61849975585938)","Link":"http://www.chicagotribune.com/news/local/breaking/-chicago-shootings-violence-0122-20170122-story.html","lat":"41.8327751159668","long":" -87.61849975585938","isFatal":"0","Hour":"06:31:00","Hour HH":"6","Minutes MM":"31"},{"":"15377","Date":"2017-01-22","Sex":"M","UCR":"041A","Age":"30","Time":"8:50","Shooting Location":"1500 W Huron St, Chicago, IL 60642","Geocode Override":"(41.89453887939453, -87.66578674316406)","Link":"http://www.chicagotribune.com/news/local/breaking/-chicago-shootings-violence-0122-20170122-story.html","lat":"41.89453887939453","long":" -87.66578674316406","isFatal":"0","Hour":"08:50:00","Hour HH":"8","Minutes MM":"50"},{"":"15378","Date":"2017-01-22","Sex":"M","UCR":"041A","Age":"26","Time":"8:50","Shooting Location":"1500 W Huron St, Chicago, IL 60642","Geocode Override":"(41.89453887939453, -87.66578674316406)","Link":"http://www.chicagotribune.com/news/local/breaking/-chicago-shootings-violence-0122-20170122-story.html","lat":"41.89453887939453","long":" -87.66578674316406","isFatal":"0","Hour":"08:50:00","Hour HH":"8","Minutes MM":"50"},{"":"15379","Date":"2017-01-22","Sex":"M","UCR":"041A","Age":"25","Time":"8:50","Shooting Location":"1500 W Huron St, Chicago, IL 60642","Geocode Override":"(41.89453887939453, -87.66578674316406)","Link":"http://www.chicagotribune.com/news/local/breaking/-chicago-shootings-violence-0122-20170122-story.html","lat":"41.89453887939453","long":" -87.66578674316406","isFatal":"0","Hour":"08:50:00","Hour HH":"8","Minutes MM":"50"},{"":"15380","Date":"2017-01-22","Sex":"M","UCR":"041A","Age":"27","Time":"11:00","Shooting Location":"1100 N Lockwood Ave, Chicago, IL 60651","Geocode Override":"(41.9005241394043, -87.7585678100586)","Link":"http://www.chicagotribune.com/news/local/breaking/-chicago-shootings-violence-0122-20170122-story.html","lat":"41.9005241394043","long":" -87.7585678100586","isFatal":"0","Hour":"11:00:00","Hour HH":"11","Minutes MM":"0"},{"":"15381","Date":"2017-01-22","Sex":"M","UCR":"041A","Age":"26","Time":"12:15","Shooting Location":"1800 W 63rd St, Chicago, IL 60636","Geocode Override":"(41.7796630859375, -87.66926574707031)","Link":"http://www.chicagotribune.com/news/local/breaking/-chicago-shootings-violence-0122-20170122-story.html","lat":"41.7796630859375","long":" -87.66926574707031","isFatal":"0","Hour":"12:15:00","Hour HH":"12","Minutes MM":"15"},{"":"15382","Date":"2017-01-22","Sex":"M","UCR":"041A","Age":"26","Time":"12:15","Shooting Location":"1800 W 63rd St, Chicago, IL 60636","Geocode Override":"(41.7796630859375, -87.66926574707031)","Link":"http://www.chicagotribune.com/news/local/breaking/-chicago-shootings-violence-0122-20170122-story.html","lat":"41.7796630859375","long":" -87.66926574707031","isFatal":"0","Hour":"12:15:00","Hour HH":"12","Minutes MM":"15"},{"":"15383","Date":"2017-01-22","Sex":"F","UCR":"041A","Age":"56","Time":"12:15","Shooting Location":"1800 W 63rd St, Chicago, IL 60636","Geocode Override":"(41.7796630859375, -87.66926574707031)","Link":"http://www.chicagotribune.com/news/local/breaking/-chicago-shootings-violence-0122-20170122-story.html","lat":"41.7796630859375","long":" -87.66926574707031","isFatal":"0","Hour":"12:15:00","Hour HH":"12","Minutes MM":"15"},{"":"15384","Date":"2017-01-22","Sex":"F","UCR":"041A","Age":"48","Time":"12:15","Shooting Location":"1800 W 63rd St, Chicago, IL 60636","Geocode Override":"(41.7796630859375, -87.66926574707031)","Link":"http://www.chicagotribune.com/news/local/breaking/-chicago-shootings-violence-0122-20170122-story.html","lat":"41.7796630859375","long":" -87.66926574707031","isFatal":"0","Hour":"12:15:00","Hour HH":"12","Minutes MM":"15"},{"":"15386","Date":"2017-01-22","Sex":"M","UCR":"041A","Age":"16","Time":"21:24","Shooting Location":"2800 S Hillock Ave, Chicago, IL 60608","Geocode Override":"(41.843971252441406, -87.65975189208984)","Link":"http://www.chicagotribune.com/news/local/breaking/-chicago-shootings-violence-0122-20170122-story.html","lat":"41.843971252441406","long":" -87.65975189208984","isFatal":"0","Hour":"21:24:00","Hour HH":"21","Minutes MM":"24"},{"":"15388","Date":"2017-01-22","Sex":"M","UCR":"1477","Age":"18","Time":"22:45","Shooting Location":"4200 W Iowa St, Chicago, IL 60651","Geocode Override":"(41.89736557006836, -87.73123931884766)","Link":"http://www.chicagotribune.com/news/local/breaking/-chicago-shootings-violence-0122-20170122-story.html","lat":"41.89736557006836","long":" -87.73123931884766","isFatal":"0","Hour":"22:45:00","Hour HH":"22","Minutes MM":"45"},{"":"15387","Date":"2017-01-23","Sex":"M","UCR":"041A","Age":"22","Time":"00:30","Shooting Location":"3600 N Central Ave, Chicago, IL 60634","Geocode Override":"(41.946972236037254, -87.71793767809868)","Link":"http://www.chicagotribune.com/news/local/breaking/-chicago-shootings-violence-0122-20170122-story.html","lat":"41.946972236037254","long":" -87.71793767809868","isFatal":"0","Hour":"00:30:00","Hour HH":"0","Minutes MM":"30"},